#Log file generated from the nmea2gvl.py converter
#Original NMEA file: 20100403_Z205_Switzerland_short.txt
#Receiver type: z205
#By courtesy of Continental Automotive
0,0$GVGNSVER,2,0,0
0,0$GVSNSVER,2,0,0
#$GPRMC,131032.877,A,4618.9395,N,00656.1347,E,0.00,,030410,,,A*75
047432000,0$GVGNSP,047432000,46.31566,6.93558,0,0X03
047432000,0$GVGNSC,047432000,0.00,0,0,0X01
047432000,0$GVGNSAC,047432000,0,0,0,0,0,0,0,0,0,2,0X00000001,0X600
#$GPRMC,131033.056,A,4618.9401,N,00656.1340,E,0.00,,030410,,,A*72
047433000,0$GVGNSP,047433000,46.31567,6.93557,0,0X03
047433000,0$GVGNSC,047433000,0.00,0,0,0X01
047433000,0$GVGNSAC,047433000,0,0,0,0,0,0,0,0,0,2,0X00000001,0X600
#$GPRMC,131033.260,A,4618.9408,N,00656.1344,E,0.62,129.54,030410,,,A*69
047433000,0$GVGNSP,047433000,46.31568,6.93557,0,0X03
047433000,0$GVGNSC,047433000,0.32,0,129.54,0X05
047433000,0$GVGNSAC,047433000,0,0,0,0,0,0,0,0,0,2,0X00000001,0X600
#$GPGGA,131034.000,4618.9473,N,00656.1316,E,1,07,1.0,403.3,M,48.1,M,,0000*55
#$GPGSV,3,1,11,07,63,152,29,13,57,053,39,10,43,302,33,04,43,215,36*7F
#$GPGSV,3,2,11,02,42,284,35,08,32,188,33,23,30,066,40,05,18,302,37*73
#$GPGSV,3,3,11,20,07,122,,29,02,334,,16,09,036,*4B
#$GPRMC,131034.000,A,4618.9473,N,00656.1316,E,0.35,150.55,030410,,,A*6C
047434000,0$GVGNSP,047434000,46.31579,6.93553,403.3,0X07
047434000,0$GVGNSC,047434000,0.18,0,150.55,0X05
047434000,0$GVGNSAC,047434000,0,1.0,0,07,0,0,0,0,0,2,0X00000001,0X60A
047434000,10$GVGNSSAT,047434000,1,07,152,63,29,0X00,0X1F
047434000,09$GVGNSSAT,047434000,1,13,053,57,39,0X00,0X1F
047434000,08$GVGNSSAT,047434000,1,10,302,43,33,0X00,0X1F
047434000,07$GVGNSSAT,047434000,1,04,215,43,36,0X00,0X1F
047434000,06$GVGNSSAT,047434000,1,02,284,42,35,0X00,0X1F
047434000,05$GVGNSSAT,047434000,1,08,188,32,33,0X00,0X1F
047434000,04$GVGNSSAT,047434000,1,23,066,30,40,0X00,0X1F
047434000,03$GVGNSSAT,047434000,1,05,302,18,37,0X00,0X1F
047434000,02$GVGNSSAT,047434000,1,20,122,07,0,0X00,0X0F
047434000,01$GVGNSSAT,047434000,1,29,334,02,0,0X00,0X0F
047434000,00$GVGNSSAT,047434000,1,16,036,09,0,0X00,0X0F
#$GPRMC,131035.000,A,4618.9464,N,00656.1324,E,0.00,,030410,,,A*76
047435000,0$GVGNSP,047435000,46.31577,6.93554,0,0X03
047435000,0$GVGNSC,047435000,0.00,0,0,0X01
047435000,0$GVGNSAC,047435000,0,0,0,0,0,0,0,0,0,2,0X00000001,0X600
#$GPRMC,131036.000,A,4618.9464,N,00656.1324,E,0.00,,030410,,,A*75
047436000,0$GVGNSP,047436000,46.31577,6.93554,0,0X03
047436000,0$GVGNSC,047436000,0.00,0,0,0X01
047436000,0$GVGNSAC,047436000,0,0,0,0,0,0,0,0,0,2,0X00000001,0X600
#$GPRMC,131037.000,A,4618.9464,N,00656.1324,E,0.00,,030410,,,A*74
047437000,0$GVGNSP,047437000,46.31577,6.93554,0,0X03
047437000,0$GVGNSC,047437000,0.00,0,0,0X01
047437000,0$GVGNSAC,047437000,0,0,0,0,0,0,0,0,0,2,0X00000001,0X600
#$GPGGA,131038.000,4618.9464,N,00656.1324,E,1,09,0.9,398.0,M,48.1,M,,0000*5E
#$GPGSV,3,1,11,07,63,152,31,13,57,053,40,10,43,302,35,04,43,214,36*7F
#$GPGSV,3,2,11,02,42,284,37,08,32,188,36,23,30,066,40,05,18,302,38*7B
#$GPGSV,3,3,11,16,09,036,,20,07,122,23,29,02,334,*4A
#$GPRMC,131038.000,A,4618.9464,N,00656.1324,E,0.00,,030410,,,A*7B
047438000,0$GVGNSP,047438000,46.31577,6.93554,398.0,0X07
047438000,0$GVGNSC,047438000,0.00,0,0,0X01
047438000,0$GVGNSAC,047438000,0,0.9,0,09,0,0,0,0,0,2,0X00000001,0X60A
047438000,10$GVGNSSAT,047438000,1,07,152,63,31,0X00,0X1F
047438000,09$GVGNSSAT,047438000,1,13,053,57,40,0X00,0X1F
047438000,08$GVGNSSAT,047438000,1,10,302,43,35,0X00,0X1F
047438000,07$GVGNSSAT,047438000,1,04,214,43,36,0X00,0X1F
047438000,06$GVGNSSAT,047438000,1,02,284,42,37,0X00,0X1F
047438000,05$GVGNSSAT,047438000,1,08,188,32,36,0X00,0X1F
047438000,04$GVGNSSAT,047438000,1,23,066,30,40,0X00,0X1F
047438000,03$GVGNSSAT,047438000,1,05,302,18,38,0X00,0X1F
047438000,02$GVGNSSAT,047438000,1,16,036,09,0,0X00,0X0F
047438000,01$GVGNSSAT,047438000,1,20,122,07,23,0X00,0X1F
047438000,00$GVGNSSAT,047438000,1,29,334,02,0,0X00,0X0F
#$GPRMC,131039.000,A,4618.9464,N,00656.1324,E,0.00,,030410,,,A*7A
047439000,0$GVGNSP,047439000,46.31577,6.93554,0,0X03
047439000,0$GVGNSC,047439000,0.00,0,0,0X01
047439000,0$GVGNSAC,047439000,0,0,0,0,0,0,0,0,0,2,0X00000001,0X600
#$GPRMC,131040.000,A,4618.9464,N,00656.1324,E,0.00,,030410,,,A*74
047440000,0$GVGNSP,047440000,46.31577,6.93554,0,0X03
047440000,0$GVGNSC,047440000,0.00,0,0,0X01
047440000,0$GVGNSAC,047440000,0,0,0,0,0,0,0,0,0,2,0X00000001,0X600
#$GPRMC,131041.000,A,4618.9464,N,00656.1324,E,0.00,,030410,,,A*75
047441000,0$GVGNSP,047441000,46.31577,6.93554,0,0X03
047441000,0$GVGNSC,047441000,0.00,0,0,0X01
047441000,0$GVGNSAC,047441000,0,0,0,0,0,0,0,0,0,2,0X00000001,0X600
#$GPGGA,131042.000,4618.9464,N,00656.1324,E,1,09,0.9,398.0,M,48.1,M,,0000*53
#$GPGSV,3,1,11,07,63,152,31,13,57,053,40,10,43,302,35,04,43,214,37*7E
#$GPGSV,3,2,11,02,42,284,38,08,32,188,36,23,30,066,41,05,18,302,38*75
#$GPGSV,3,3,11,16,09,036,,20,07,122,24,29,02,334,*4D
#$GPRMC,131042.000,A,4618.9464,N,00656.1324,E,0.00,,030410,,,A*76
047442000,0$GVGNSP,047442000,46.31577,6.93554,398.0,0X07
047442000,0$GVGNSC,047442000,0.00,0,0,0X01
047442000,0$GVGNSAC,047442000,0,0.9,0,09,0,0,0,0,0,2,0X00000001,0X60A
047442000,10$GVGNSSAT,047442000,1,07,152,63,31,0X00,0X1F
047442000,09$GVGNSSAT,047442000,1,13,053,57,40,0X00,0X1F
047442000,08$GVGNSSAT,047442000,1,10,302,43,35,0X00,0X1F
047442000,07$GVGNSSAT,047442000,1,04,214,43,37,0X00,0X1F
047442000,06$GVGNSSAT,047442000,1,02,284,42,38,0X00,0X1F
047442000,05$GVGNSSAT,047442000,1,08,188,32,36,0X00,0X1F
047442000,04$GVGNSSAT,047442000,1,23,066,30,41,0X00,0X1F
047442000,03$GVGNSSAT,047442000,1,05,302,18,38,0X00,0X1F
047442000,02$GVGNSSAT,047442000,1,16,036,09,0,0X00,0X0F
047442000,01$GVGNSSAT,047442000,1,20,122,07,24,0X00,0X1F
047442000,00$GVGNSSAT,047442000,1,29,334,02,0,0X00,0X0F
#$GPRMC,131043.000,A,4618.9464,N,00656.1324,E,0.00,,030410,,,A*77
047443000,0$GVGNSP,047443000,46.31577,6.93554,0,0X03
047443000,0$GVGNSC,047443000,0.00,0,0,0X01
047443000,0$GVGNSAC,047443000,0,0,0,0,0,0,0,0,0,2,0X00000001,0X600
#$GPRMC,131044.000,A,4618.9464,N,00656.1324,E,0.00,,030410,,,A*70
047444000,0$GVGNSP,047444000,46.31577,6.93554,0,0X03
047444000,0$GVGNSC,047444000,0.00,0,0,0X01
047444000,0$GVGNSAC,047444000,0,0,0,0,0,0,0,0,0,2,0X00000001,0X600
#$GPRMC,131045.000,A,4618.9464,N,00656.1324,E,0.00,,030410,,,A*71
047445000,0$GVGNSP,047445000,46.31577,6.93554,0,0X03
047445000,0$GVGNSC,047445000,0.00,0,0,0X01
047445000,0$GVGNSAC,047445000,0,0,0,0,0,0,0,0,0,2,0X00000001,0X600
#$GPGGA,131046.000,4618.9464,N,00656.1324,E,1,09,0.9,398.0,M,48.1,M,,0000*57
#$GPGSV,3,1,11,07,63,152,29,13,56,053,41,10,44,302,38,04,43,214,36*7C
#$GPGSV,3,2,11,02,42,284,39,08,32,188,36,23,30,066,40,05,18,302,39*74
#$GPGSV,3,3,11,16,09,036,,20,07,122,24,29,02,334,*4D
#$GPRMC,131046.000,A,4618.9464,N,00656.1324,E,0.00,,030410,,,A*72
047446000,0$GVGNSP,047446000,46.31577,6.93554,398.0,0X07
047446000,0$GVGNSC,047446000,0.00,0,0,0X01
047446000,0$GVGNSAC,047446000,0,0.9,0,09,0,0,0,0,0,2,0X00000001,0X60A
047446000,10$GVGNSSAT,047446000,1,07,152,63,29,0X00,0X1F
047446000,09$GVGNSSAT,047446000,1,13,053,56,41,0X00,0X1F
047446000,08$GVGNSSAT,047446000,1,10,302,44,38,0X00,0X1F
047446000,07$GVGNSSAT,047446000,1,04,214,43,36,0X00,0X1F
047446000,06$GVGNSSAT,047446000,1,02,284,42,39,0X00,0X1F
047446000,05$GVGNSSAT,047446000,1,08,188,32,36,0X00,0X1F
047446000,04$GVGNSSAT,047446000,1,23,066,30,40,0X00,0X1F
047446000,03$GVGNSSAT,047446000,1,05,302,18,39,0X00,0X1F
047446000,02$GVGNSSAT,047446000,1,16,036,09,0,0X00,0X0F
047446000,01$GVGNSSAT,047446000,1,20,122,07,24,0X00,0X1F
047446000,00$GVGNSSAT,047446000,1,29,334,02,0,0X00,0X0F
#$GPRMC,131047.000,A,4618.9464,N,00656.1324,E,0.00,,030410,,,A*73
047447000,0$GVGNSP,047447000,46.31577,6.93554,0,0X03
047447000,0$GVGNSC,047447000,0.00,0,0,0X01
047447000,0$GVGNSAC,047447000,0,0,0,0,0,0,0,0,0,2,0X00000001,0X600
#$GPRMC,131048.000,A,4618.9464,N,00656.1324,E,0.00,,030410,,,A*7C
047448000,0$GVGNSP,047448000,46.31577,6.93554,0,0X03
047448000,0$GVGNSC,047448000,0.00,0,0,0X01
047448000,0$GVGNSAC,047448000,0,0,0,0,0,0,0,0,0,2,0X00000001,0X600
#$GPRMC,131049.000,A,4618.9464,N,00656.1324,E,0.00,,030410,,,A*7D
047449000,0$GVGNSP,047449000,46.31577,6.93554,0,0X03
047449000,0$GVGNSC,047449000,0.00,0,0,0X01
047449000,0$GVGNSAC,047449000,0,0,0,0,0,0,0,0,0,2,0X00000001,0X600
#$GPGGA,131050.000,4618.9464,N,00656.1324,E,1,08,1.0,398.0,M,48.1,M,,0000*59
#$GPGSV,3,1,11,07,63,152,29,13,56,053,41,10,44,302,38,04,43,214,36*7C
#$GPGSV,3,2,11,02,42,284,38,08,32,188,35,23,30,066,40,05,18,302,39*76
#$GPGSV,3,3,11,16,09,036,,20,07,122,,29,02,334,*4B
#$GPRMC,131050.000,A,4618.9464,N,00656.1324,E,0.00,,030410,,,A*75
047450000,0$GVGNSP,047450000,46.31577,6.93554,398.0,0X07
047450000,0$GVGNSC,047450000,0.00,0,0,0X01
047450000,0$GVGNSAC,047450000,0,1.0,0,08,0,0,0,0,0,2,0X00000001,0X60A
047450000,10$GVGNSSAT,047450000,1,07,152,63,29,0X00,0X1F
047450000,09$GVGNSSAT,047450000,1,13,053,56,41,0X00,0X1F
047450000,08$GVGNSSAT,047450000,1,10,302,44,38,0X00,0X1F
047450000,07$GVGNSSAT,047450000,1,04,214,43,36,0X00,0X1F
047450000,06$GVGNSSAT,047450000,1,02,284,42,38,0X00,0X1F
047450000,05$GVGNSSAT,047450000,1,08,188,32,35,0X00,0X1F
047450000,04$GVGNSSAT,047450000,1,23,066,30,40,0X00,0X1F
047450000,03$GVGNSSAT,047450000,1,05,302,18,39,0X00,0X1F
047450000,02$GVGNSSAT,047450000,1,16,036,09,0,0X00,0X0F
047450000,01$GVGNSSAT,047450000,1,20,122,07,0,0X00,0X0F
047450000,00$GVGNSSAT,047450000,1,29,334,02,0,0X00,0X0F
#$GPRMC,131051.000,A,4618.9464,N,00656.1324,E,0.00,,030410,,,A*74
047451000,0$GVGNSP,047451000,46.31577,6.93554,0,0X03
047451000,0$GVGNSC,047451000,0.00,0,0,0X01
047451000,0$GVGNSAC,047451000,0,0,0,0,0,0,0,0,0,2,0X00000001,0X600
#$GPRMC,131052.000,A,4618.9464,N,00656.1324,E,0.00,,030410,,,A*77
047452000,0$GVGNSP,047452000,46.31577,6.93554,0,0X03
047452000,0$GVGNSC,047452000,0.00,0,0,0X01
047452000,0$GVGNSAC,047452000,0,0,0,0,0,0,0,0,0,2,0X00000001,0X600
#$GPRMC,131053.000,A,4618.9464,N,00656.1324,E,0.00,,030410,,,A*76
047453000,0$GVGNSP,047453000,46.31577,6.93554,0,0X03
047453000,0$GVGNSC,047453000,0.00,0,0,0X01
047453000,0$GVGNSAC,047453000,0,0,0,0,0,0,0,0,0,2,0X00000001,0X600
#$GPGGA,131054.000,4618.9464,N,00656.1324,E,1,08,1.0,398.0,M,48.1,M,,0000*5D
#$GPGSV,3,1,11,07,63,152,29,13,56,053,42,10,44,302,38,04,43,214,37*7E
#$GPGSV,3,2,11,02,42,284,39,08,32,188,35,23,30,066,40,05,18,302,40*79
#$GPGSV,3,3,11,16,09,036,,20,07,122,,29,02,334,*4B
#$GPRMC,131054.000,A,4618.9464,N,00656.1324,E,0.00,,030410,,,A*71
047454000,0$GVGNSP,047454000,46.31577,6.93554,398.0,0X07
047454000,0$GVGNSC,047454000,0.00,0,0,0X01
047454000,0$GVGNSAC,047454000,0,1.0,0,08,0,0,0,0,0,2,0X00000001,0X60A
047454000,10$GVGNSSAT,047454000,1,07,152,63,29,0X00,0X1F
047454000,09$GVGNSSAT,047454000,1,13,053,56,42,0X00,0X1F
047454000,08$GVGNSSAT,047454000,1,10,302,44,38,0X00,0X1F
047454000,07$GVGNSSAT,047454000,1,04,214,43,37,0X00,0X1F
047454000,06$GVGNSSAT,047454000,1,02,284,42,39,0X00,0X1F
047454000,05$GVGNSSAT,047454000,1,08,188,32,35,0X00,0X1F
047454000,04$GVGNSSAT,047454000,1,23,066,30,40,0X00,0X1F
047454000,03$GVGNSSAT,047454000,1,05,302,18,40,0X00,0X1F
047454000,02$GVGNSSAT,047454000,1,16,036,09,0,0X00,0X0F
047454000,01$GVGNSSAT,047454000,1,20,122,07,0,0X00,0X0F
047454000,00$GVGNSSAT,047454000,1,29,334,02,0,0X00,0X0F
#$GPRMC,131055.000,A,4618.9464,N,00656.1324,E,0.00,,030410,,,A*70
047455000,0$GVGNSP,047455000,46.31577,6.93554,0,0X03
047455000,0$GVGNSC,047455000,0.00,0,0,0X01
047455000,0$GVGNSAC,047455000,0,0,0,0,0,0,0,0,0,2,0X00000001,0X600
#$GPRMC,131056.000,A,4618.9464,N,00656.1324,E,0.00,,030410,,,A*73
047456000,0$GVGNSP,047456000,46.31577,6.93554,0,0X03
047456000,0$GVGNSC,047456000,0.00,0,0,0X01
047456000,0$GVGNSAC,047456000,0,0,0,0,0,0,0,0,0,2,0X00000001,0X600
#$GPRMC,131057.000,A,4618.9464,N,00656.1324,E,0.00,,030410,,,A*72
047457000,0$GVGNSP,047457000,46.31577,6.93554,0,0X03
047457000,0$GVGNSC,047457000,0.00,0,0,0X01
047457000,0$GVGNSAC,047457000,0,0,0,0,0,0,0,0,0,2,0X00000001,0X600
#$GPGGA,131058.000,4618.9464,N,00656.1324,E,1,07,1.0,398.0,M,48.1,M,,0000*5E
#$GPGSV,3,1,11,07,63,152,15,13,56,053,42,10,44,302,38,04,43,214,37*71
#$GPGSV,3,2,11,02,42,284,39,08,32,188,35,23,30,066,39,05,18,302,40*77
#$GPGSV,3,3,11,16,09,036,,20,07,122,,29,02,334,*4B
#$GPRMC,131058.000,A,4618.9464,N,00656.1324,E,0.00,,030410,,,A*7D
047458000,0$GVGNSP,047458000,46.31577,6.93554,398.0,0X07
047458000,0$GVGNSC,047458000,0.00,0,0,0X01
047458000,0$GVGNSAC,047458000,0,1.0,0,07,0,0,0,0,0,2,0X00000001,0X60A
047458000,10$GVGNSSAT,047458000,1,07,152,63,15,0X00,0X1F
047458000,09$GVGNSSAT,047458000,1,13,053,56,42,0X00,0X1F
047458000,08$GVGNSSAT,047458000,1,10,302,44,38,0X00,0X1F
047458000,07$GVGNSSAT,047458000,1,04,214,43,37,0X00,0X1F
047458000,06$GVGNSSAT,047458000,1,02,284,42,39,0X00,0X1F
047458000,05$GVGNSSAT,047458000,1,08,188,32,35,0X00,0X1F
047458000,04$GVGNSSAT,047458000,1,23,066,30,39,0X00,0X1F
047458000,03$GVGNSSAT,047458000,1,05,302,18,40,0X00,0X1F
047458000,02$GVGNSSAT,047458000,1,16,036,09,0,0X00,0X0F
047458000,01$GVGNSSAT,047458000,1,20,122,07,0,0X00,0X0F
047458000,00$GVGNSSAT,047458000,1,29,334,02,0,0X00,0X0F
#$GPRMC,131059.000,A,4618.9464,N,00656.1324,E,0.00,,030410,,,A*7C
047459000,0$GVGNSP,047459000,46.31577,6.93554,0,0X03
047459000,0$GVGNSC,047459000,0.00,0,0,0X01
047459000,0$GVGNSAC,047459000,0,0,0,0,0,0,0,0,0,2,0X00000001,0X600
#$GPRMC,131100.000,A,4618.9464,N,00656.1324,E,0.00,,030410,,,A*71
047460000,0$GVGNSP,047460000,46.31577,6.93554,0,0X03
047460000,0$GVGNSC,047460000,0.00,0,0,0X01
047460000,0$GVGNSAC,047460000,0,0,0,0,0,0,0,0,0,2,0X00000001,0X600
#$GPRMC,131101.000,A,4618.9464,N,00656.1324,E,0.00,,030410,,,A*70
047461000,0$GVGNSP,047461000,46.31577,6.93554,0,0X03
047461000,0$GVGNSC,047461000,0.00,0,0,0X01
047461000,0$GVGNSAC,047461000,0,0,0,0,0,0,0,0,0,2,0X00000001,0X600
#$GPGGA,131102.000,4618.9464,N,00656.1324,E,1,08,1.0,398.0,M,48.1,M,,0000*5F
#$GPGSV,3,1,11,07,63,152,25,13,56,053,42,10,44,302,38,04,43,214,38*7D
#$GPGSV,3,2,11,02,42,284,39,08,32,188,35,23,30,066,39,05,18,302,40*77
#$GPGSV,3,3,11,16,09,036,,20,07,122,,29,02,334,21*48
#$GPRMC,131102.000,A,4618.9464,N,00656.1324,E,0.00,,030410,,,A*73
047462000,0$GVGNSP,047462000,46.31577,6.93554,398.0,0X07
047462000,0$GVGNSC,047462000,0.00,0,0,0X01
047462000,0$GVGNSAC,047462000,0,1.0,0,08,0,0,0,0,0,2,0X00000001,0X60A
047462000,10$GVGNSSAT,047462000,1,07,152,63,25,0X00,0X1F
047462000,09$GVGNSSAT,047462000,1,13,053,56,42,0X00,0X1F
047462000,08$GVGNSSAT,047462000,1,10,302,44,38,0X00,0X1F
047462000,07$GVGNSSAT,047462000,1,04,214,43,38,0X00,0X1F
047462000,06$GVGNSSAT,047462000,1,02,284,42,39,0X00,0X1F
047462000,05$GVGNSSAT,047462000,1,08,188,32,35,0X00,0X1F
047462000,04$GVGNSSAT,047462000,1,23,066,30,39,0X00,0X1F
047462000,03$GVGNSSAT,047462000,1,05,302,18,40,0X00,0X1F
047462000,02$GVGNSSAT,047462000,1,16,036,09,0,0X00,0X0F
047462000,01$GVGNSSAT,047462000,1,20,122,07,0,0X00,0X0F
047462000,00$GVGNSSAT,047462000,1,29,334,02,21,0X00,0X1F
#$GPRMC,131103.000,A,4618.9464,N,00656.1324,E,0.00,,030410,,,A*72
047463000,0$GVGNSP,047463000,46.31577,6.93554,0,0X03
047463000,0$GVGNSC,047463000,0.00,0,0,0X01
047463000,0$GVGNSAC,047463000,0,0,0,0,0,0,0,0,0,2,0X00000001,0X600
#$GPRMC,131104.000,A,4618.9464,N,00656.1324,E,0.00,,030410,,,A*75
047464000,0$GVGNSP,047464000,46.31577,6.93554,0,0X03
047464000,0$GVGNSC,047464000,0.00,0,0,0X01
047464000,0$GVGNSAC,047464000,0,0,0,0,0,0,0,0,0,2,0X00000001,0X600
#$GPRMC,131105.000,A,4618.9464,N,00656.1324,E,0.00,,030410,,,A*74
047465000,0$GVGNSP,047465000,46.31577,6.93554,0,0X03
047465000,0$GVGNSC,047465000,0.00,0,0,0X01
047465000,0$GVGNSAC,047465000,0,0,0,0,0,0,0,0,0,2,0X00000001,0X600
#$GPGGA,131106.000,4618.9464,N,00656.1324,E,1,09,0.9,398.0,M,48.1,M,,0000*52
#$GPGSV,3,1,11,07,63,151,22,13,56,053,43,10,44,302,39,04,43,214,38*79
#$GPGSV,3,2,11,02,42,284,40,08,32,188,36,23,30,066,38,05,18,302,40*7B
#$GPGSV,3,3,11,16,09,036,,20,07,122,25,29,02,334,21*4F
#$GPRMC,131106.000,A,4618.9464,N,00656.1324,E,0.00,,030410,,,A*77
047466000,0$GVGNSP,047466000,46.31577,6.93554,398.0,0X07
047466000,0$GVGNSC,047466000,0.00,0,0,0X01
047466000,0$GVGNSAC,047466000,0,0.9,0,09,0,0,0,0,0,2,0X00000001,0X60A
047466000,10$GVGNSSAT,047466000,1,07,151,63,22,0X00,0X1F
047466000,09$GVGNSSAT,047466000,1,13,053,56,43,0X00,0X1F
047466000,08$GVGNSSAT,047466000,1,10,302,44,39,0X00,0X1F
047466000,07$GVGNSSAT,047466000,1,04,214,43,38,0X00,0X1F
047466000,06$GVGNSSAT,047466000,1,02,284,42,40,0X00,0X1F
047466000,05$GVGNSSAT,047466000,1,08,188,32,36,0X00,0X1F
047466000,04$GVGNSSAT,047466000,1,23,066,30,38,0X00,0X1F
047466000,03$GVGNSSAT,047466000,1,05,302,18,40,0X00,0X1F
047466000,02$GVGNSSAT,047466000,1,16,036,09,0,0X00,0X0F
047466000,01$GVGNSSAT,047466000,1,20,122,07,25,0X00,0X1F
047466000,00$GVGNSSAT,047466000,1,29,334,02,21,0X00,0X1F
#$GPRMC,131107.000,A,4618.9464,N,00656.1324,E,0.00,,030410,,,A*76
047467000,0$GVGNSP,047467000,46.31577,6.93554,0,0X03
047467000,0$GVGNSC,047467000,0.00,0,0,0X01
047467000,0$GVGNSAC,047467000,0,0,0,0,0,0,0,0,0,2,0X00000001,0X600
#$GPRMC,131108.000,A,4618.9464,N,00656.1324,E,0.00,,030410,,,A*79
047468000,0$GVGNSP,047468000,46.31577,6.93554,0,0X03
047468000,0$GVGNSC,047468000,0.00,0,0,0X01
047468000,0$GVGNSAC,047468000,0,0,0,0,0,0,0,0,0,2,0X00000001,0X600
#$GPRMC,131109.000,A,4618.9464,N,00656.1324,E,0.00,,030410,,,A*78
047469000,0$GVGNSP,047469000,46.31577,6.93554,0,0X03
047469000,0$GVGNSC,047469000,0.00,0,0,0X01
047469000,0$GVGNSAC,047469000,0,0,0,0,0,0,0,0,0,2,0X00000001,0X600
#$GPGGA,131110.000,4618.9464,N,00656.1324,E,1,09,0.9,398.0,M,48.1,M,,0000*55
#$GPGSV,3,1,11,07,63,151,25,13,56,053,43,10,44,302,39,04,43,214,38*7E
#$GPGSV,3,2,11,02,42,284,40,08,32,188,37,23,30,066,38,05,18,302,39*74
#$GPGSV,3,3,11,16,09,036,,20,07,122,26,29,02,334,*4F
#$GPRMC,131110.000,A,4618.9464,N,00656.1324,E,0.00,,030410,,,A*70
047470000,0$GVGNSP,047470000,46.31577,6.93554,398.0,0X07
047470000,0$GVGNSC,047470000,0.00,0,0,0X01
047470000,0$GVGNSAC,047470000,0,0.9,0,09,0,0,0,0,0,2,0X00000001,0X60A
047470000,10$GVGNSSAT,047470000,1,07,151,63,25,0X00,0X1F
047470000,09$GVGNSSAT,047470000,1,13,053,56,43,0X00,0X1F
047470000,08$GVGNSSAT,047470000,1,10,302,44,39,0X00,0X1F
047470000,07$GVGNSSAT,047470000,1,04,214,43,38,0X00,0X1F
047470000,06$GVGNSSAT,047470000,1,02,284,42,40,0X00,0X1F
047470000,05$GVGNSSAT,047470000,1,08,188,32,37,0X00,0X1F
047470000,04$GVGNSSAT,047470000,1,23,066,30,38,0X00,0X1F
047470000,03$GVGNSSAT,047470000,1,05,302,18,39,0X00,0X1F
047470000,02$GVGNSSAT,047470000,1,16,036,09,0,0X00,0X0F
047470000,01$GVGNSSAT,047470000,1,20,122,07,26,0X00,0X1F
047470000,00$GVGNSSAT,047470000,1,29,334,02,0,0X00,0X0F
#$GPRMC,131111.000,A,4618.9464,N,00656.1324,E,0.00,,030410,,,A*71
047471000,0$GVGNSP,047471000,46.31577,6.93554,0,0X03
047471000,0$GVGNSC,047471000,0.00,0,0,0X01
047471000,0$GVGNSAC,047471000,0,0,0,0,0,0,0,0,0,2,0X00000001,0X600
#$GPRMC,131112.000,A,4618.9464,N,00656.1324,E,0.00,,030410,,,A*72
047472000,0$GVGNSP,047472000,46.31577,6.93554,0,0X03
047472000,0$GVGNSC,047472000,0.00,0,0,0X01
047472000,0$GVGNSAC,047472000,0,0,0,0,0,0,0,0,0,2,0X00000001,0X600
#$GPRMC,131113.000,A,4618.9464,N,00656.1324,E,0.00,,030410,,,A*73
047473000,0$GVGNSP,047473000,46.31577,6.93554,0,0X03
047473000,0$GVGNSC,047473000,0.00,0,0,0X01
047473000,0$GVGNSAC,047473000,0,0,0,0,0,0,0,0,0,2,0X00000001,0X600
#$GPGGA,131114.000,4618.9464,N,00656.1324,E,1,09,0.9,398.0,M,48.1,M,,0000*51
#$GPGSV,3,1,11,07,63,151,23,13,56,053,42,10,44,302,39,04,43,214,37*76
#$GPGSV,3,2,11,02,42,284,40,08,32,188,36,23,30,066,37,05,18,302,39*7A
#$GPGSV,3,3,11,16,09,036,,20,07,122,25,29,02,334,*4C
#$GPRMC,131114.000,A,4618.9464,N,00656.1324,E,0.00,,030410,,,A*74
047474000,0$GVGNSP,047474000,46.31577,6.93554,398.0,0X07
047474000,0$GVGNSC,047474000,0.00,0,0,0X01
047474000,0$GVGNSAC,047474000,0,0.9,0,09,0,0,0,0,0,2,0X00000001,0X60A
047474000,10$GVGNSSAT,047474000,1,07,151,63,23,0X00,0X1F
047474000,09$GVGNSSAT,047474000,1,13,053,56,42,0X00,0X1F
047474000,08$GVGNSSAT,047474000,1,10,302,44,39,0X00,0X1F
047474000,07$GVGNSSAT,047474000,1,04,214,43,37,0X00,0X1F
047474000,06$GVGNSSAT,047474000,1,02,284,42,40,0X00,0X1F
047474000,05$GVGNSSAT,047474000,1,08,188,32,36,0X00,0X1F
047474000,04$GVGNSSAT,047474000,1,23,066,30,37,0X00,0X1F
047474000,03$GVGNSSAT,047474000,1,05,302,18,39,0X00,0X1F
047474000,02$GVGNSSAT,047474000,1,16,036,09,0,0X00,0X0F
047474000,01$GVGNSSAT,047474000,1,20,122,07,25,0X00,0X1F
047474000,00$GVGNSSAT,047474000,1,29,334,02,0,0X00,0X0F
#$GPRMC,131115.000,A,4618.9464,N,00656.1324,E,0.00,,030410,,,A*75
047475000,0$GVGNSP,047475000,46.31577,6.93554,0,0X03
047475000,0$GVGNSC,047475000,0.00,0,0,0X01
047475000,0$GVGNSAC,047475000,0,0,0,0,0,0,0,0,0,2,0X00000001,0X600
#$GPRMC,131116.000,A,4618.9416,N,00656.1359,E,3.16,257.17,030410,,,A*65
047476000,0$GVGNSP,047476000,46.31569,6.93560,0,0X03
047476000,0$GVGNSC,047476000,1.63,0,257.17,0X05
047476000,0$GVGNSAC,047476000,0,0,0,0,0,0,0,0,0,2,0X00000001,0X600
#$GPRMC,131117.000,A,4618.9411,N,00656.1345,E,4.56,232.03,030410,,,A*6B
047477000,0$GVGNSP,047477000,46.31569,6.93558,0,0X03
047477000,0$GVGNSC,047477000,2.35,0,232.03,0X05
047477000,0$GVGNSAC,047477000,0,0,0,0,0,0,0,0,0,2,0X00000001,0X600
#$GPGGA,131118.000,4618.9402,N,00656.1335,E,1,09,0.9,379.4,M,48.1,M,,0000*56
#$GPGSV,3,1,11,07,63,151,37,13,56,053,33,10,44,302,40,04,43,214,38*74
#$GPGSV,3,2,11,02,42,283,40,08,32,188,37,23,30,066,28,05,18,302,38*73
#$GPGSV,3,3,11,16,09,036,,20,07,123,25,29,02,334,*4D
#$GPRMC,131118.000,A,4618.9402,N,00656.1335,E,4.01,203.98,030410,,,A*63
047478000,0$GVGNSP,047478000,46.31567,6.93556,379.4,0X07
047478000,0$GVGNSC,047478000,2.06,0,203.98,0X05
047478000,0$GVGNSAC,047478000,0,0.9,0,09,0,0,0,0,0,2,0X00000001,0X60A
047478000,10$GVGNSSAT,047478000,1,07,151,63,37,0X00,0X1F
047478000,09$GVGNSSAT,047478000,1,13,053,56,33,0X00,0X1F
047478000,08$GVGNSSAT,047478000,1,10,302,44,40,0X00,0X1F
047478000,07$GVGNSSAT,047478000,1,04,214,43,38,0X00,0X1F
047478000,06$GVGNSSAT,047478000,1,02,283,42,40,0X00,0X1F
047478000,05$GVGNSSAT,047478000,1,08,188,32,37,0X00,0X1F
047478000,04$GVGNSSAT,047478000,1,23,066,30,28,0X00,0X1F
047478000,03$GVGNSSAT,047478000,1,05,302,18,38,0X00,0X1F
047478000,02$GVGNSSAT,047478000,1,16,036,09,0,0X00,0X0F
047478000,01$GVGNSSAT,047478000,1,20,123,07,25,0X00,0X1F
047478000,00$GVGNSSAT,047478000,1,29,334,02,0,0X00,0X0F
#$GPRMC,131119.000,A,4618.9391,N,00656.1332,E,4.38,176.96,030410,,,A*6D
047479000,0$GVGNSP,047479000,46.31565,6.93555,0,0X03
047479000,0$GVGNSC,047479000,2.25,0,176.96,0X05
047479000,0$GVGNSAC,047479000,0,0,0,0,0,0,0,0,0,2,0X00000001,0X600
#$GPRMC,131120.000,A,4618.9378,N,00656.1341,E,5.67,136.98,030410,,,A*65
047480000,0$GVGNSP,047480000,46.31563,6.93557,0,0X03
047480000,0$GVGNSC,047480000,2.92,0,136.98,0X05
047480000,0$GVGNSAC,047480000,0,0,0,0,0,0,0,0,0,2,0X00000001,0X600
#$GPRMC,131121.000,A,4618.9371,N,00656.1364,E,6.55,97.22,030410,,,A*53
047481000,0$GVGNSP,047481000,46.31562,6.93561,0,0X03
047481000,0$GVGNSC,047481000,3.37,0,97.22,0X05
047481000,0$GVGNSAC,047481000,0,0,0,0,0,0,0,0,0,2,0X00000001,0X600
#$GPGGA,131122.000,4618.9373,N,00656.1398,E,1,09,0.9,382.1,M,48.1,M,,0000*58
#$GPGSV,3,1,11,07,63,151,37,13,56,053,32,10,44,302,30,04,43,214,28*73
#$GPGSV,3,2,11,02,42,283,30,08,32,188,27,23,30,066,37,05,18,302,32*71
#$GPGSV,3,3,11,16,09,036,,20,07,123,21,29,02,334,*49
#$GPRMC,131122.000,A,4618.9373,N,00656.1398,E,9.01,77.53,030410,,,A*57
047482000,0$GVGNSP,047482000,46.31562,6.93566,382.1,0X07
047482000,0$GVGNSC,047482000,4.64,0,77.53,0X05
047482000,0$GVGNSAC,047482000,0,0.9,0,09,0,0,0,0,0,2,0X00000001,0X60A
047482000,10$GVGNSSAT,047482000,1,07,151,63,37,0X00,0X1F
047482000,09$GVGNSSAT,047482000,1,13,053,56,32,0X00,0X1F
047482000,08$GVGNSSAT,047482000,1,10,302,44,30,0X00,0X1F
047482000,07$GVGNSSAT,047482000,1,04,214,43,28,0X00,0X1F
047482000,06$GVGNSSAT,047482000,1,02,283,42,30,0X00,0X1F
047482000,05$GVGNSSAT,047482000,1,08,188,32,27,0X00,0X1F
047482000,04$GVGNSSAT,047482000,1,23,066,30,37,0X00,0X1F
047482000,03$GVGNSSAT,047482000,1,05,302,18,32,0X00,0X1F
047482000,02$GVGNSSAT,047482000,1,16,036,09,0,0X00,0X0F
047482000,01$GVGNSSAT,047482000,1,20,123,07,21,0X00,0X1F
047482000,00$GVGNSSAT,047482000,1,29,334,02,0,0X00,0X0F
#$GPRMC,131123.000,A,4618.9379,N,00656.1440,E,10.99,77.40,030410,,,A*65
047483000,0$GVGNSP,047483000,46.31563,6.93573,0,0X03
047483000,0$GVGNSC,047483000,5.65,0,77.40,0X05
047483000,0$GVGNSAC,047483000,0,0,0,0,0,0,0,0,0,2,0X00000001,0X600
#$GPRMC,131124.000,A,4618.9385,N,00656.1487,E,10.82,80.27,030410,,,A*69
047484000,0$GVGNSP,047484000,46.31564,6.93581,0,0X03
047484000,0$GVGNSC,047484000,5.57,0,80.27,0X05
047484000,0$GVGNSAC,047484000,0,0,0,0,0,0,0,0,0,2,0X00000001,0X600
#$GPRMC,131125.000,A,4618.9389,N,00656.1527,E,8.83,77.94,030410,,,A*57
047485000,0$GVGNSP,047485000,46.31565,6.93588,0,0X03
047485000,0$GVGNSC,047485000,4.54,0,77.94,0X05
047485000,0$GVGNSAC,047485000,0,0,0,0,0,0,0,0,0,2,0X00000001,0X600
#$GPGGA,131126.000,4618.9394,N,00656.1556,E,1,09,0.9,382.2,M,48.1,M,,0000*52
#$GPGSV,3,1,11,07,63,151,38,13,56,053,26,10,44,302,22,04,43,214,27*75
#$GPGSV,3,2,11,02,42,283,29,08,32,188,40,23,30,066,39,05,18,302,31*75
#$GPGSV,3,3,11,16,09,036,,20,07,123,25,29,02,334,*4D
#$GPRMC,131126.000,A,4618.9394,N,00656.1556,E,5.99,72.33,030410,,,A*50
047486000,0$GVGNSP,047486000,46.31566,6.93593,382.2,0X07
047486000,0$GVGNSC,047486000,3.08,0,72.33,0X05
047486000,0$GVGNSAC,047486000,0,0.9,0,09,0,0,0,0,0,2,0X00000001,0X60A
047486000,10$GVGNSSAT,047486000,1,07,151,63,38,0X00,0X1F
047486000,09$GVGNSSAT,047486000,1,13,053,56,26,0X00,0X1F
047486000,08$GVGNSSAT,047486000,1,10,302,44,22,0X00,0X1F
047486000,07$GVGNSSAT,047486000,1,04,214,43,27,0X00,0X1F
047486000,06$GVGNSSAT,047486000,1,02,283,42,29,0X00,0X1F
047486000,05$GVGNSSAT,047486000,1,08,188,32,40,0X00,0X1F
047486000,04$GVGNSSAT,047486000,1,23,066,30,39,0X00,0X1F
047486000,03$GVGNSSAT,047486000,1,05,302,18,31,0X00,0X1F
047486000,02$GVGNSSAT,047486000,1,16,036,09,0,0X00,0X0F
047486000,01$GVGNSSAT,047486000,1,20,123,07,25,0X00,0X1F
047486000,00$GVGNSSAT,047486000,1,29,334,02,0,0X00,0X0F
#$GPRMC,131127.000,A,4618.9396,N,00656.1569,E,1.54,85.66,030410,,,A*52
047487000,0$GVGNSP,047487000,46.31566,6.93595,0,0X03
047487000,0$GVGNSC,047487000,0.79,0,85.66,0X05
047487000,0$GVGNSAC,047487000,0,0,0,0,0,0,0,0,0,2,0X00000001,0X600
#$GPRMC,131128.000,A,4618.9396,N,00656.1573,E,0.28,102.89,030410,,,A*63
047488000,0$GVGNSP,047488000,46.31566,6.93595,0,0X03
047488000,0$GVGNSC,047488000,0.14,0,102.89,0X05
047488000,0$GVGNSAC,047488000,0,0,0,0,0,0,0,0,0,2,0X00000001,0X600
#$GPRMC,131129.000,A,4618.9396,N,00656.1574,E,0.00,,030410,,,A*73
047489000,0$GVGNSP,047489000,46.31566,6.93596,0,0X03
047489000,0$GVGNSC,047489000,0.00,0,0,0X01
047489000,0$GVGNSAC,047489000,0,0,0,0,0,0,0,0,0,2,0X00000001,0X600
#$GPGGA,131130.000,4618.9396,N,00656.1574,E,1,09,0.9,382.7,M,48.1,M,,0000*52
#$GPGSV,3,1,11,07,63,151,39,13,56,053,19,10,44,302,26,04,43,214,26*7D
#$GPGSV,3,2,11,02,42,283,24,08,32,188,41,23,30,066,40,05,18,302,36*70
#$GPGSV,3,3,11,16,09,036,,20,07,123,25,29,02,334,*4D
#$GPRMC,131130.000,A,4618.9396,N,00656.1574,E,0.00,,030410,,,A*7B
047490000,0$GVGNSP,047490000,46.31566,6.93596,382.7,0X07
047490000,0$GVGNSC,047490000,0.00,0,0,0X01
047490000,0$GVGNSAC,047490000,0,0.9,0,09,0,0,0,0,0,2,0X00000001,0X60A
047490000,10$GVGNSSAT,047490000,1,07,151,63,39,0X00,0X1F
047490000,09$GVGNSSAT,047490000,1,13,053,56,19,0X00,0X1F
047490000,08$GVGNSSAT,047490000,1,10,302,44,26,0X00,0X1F
047490000,07$GVGNSSAT,047490000,1,04,214,43,26,0X00,0X1F
047490000,06$GVGNSSAT,047490000,1,02,283,42,24,0X00,0X1F
047490000,05$GVGNSSAT,047490000,1,08,188,32,41,0X00,0X1F
047490000,04$GVGNSSAT,047490000,1,23,066,30,40,0X00,0X1F
047490000,03$GVGNSSAT,047490000,1,05,302,18,36,0X00,0X1F
047490000,02$GVGNSSAT,047490000,1,16,036,09,0,0X00,0X0F
047490000,01$GVGNSSAT,047490000,1,20,123,07,25,0X00,0X1F
047490000,00$GVGNSSAT,047490000,1,29,334,02,0,0X00,0X0F
#$GPRMC,131131.000,A,4618.9396,N,00656.1574,E,0.00,,030410,,,A*7A
047491000,0$GVGNSP,047491000,46.31566,6.93596,0,0X03
047491000,0$GVGNSC,047491000,0.00,0,0,0X01
047491000,0$GVGNSAC,047491000,0,0,0,0,0,0,0,0,0,2,0X00000001,0X600
#$GPRMC,131132.000,A,4618.9396,N,00656.1574,E,0.00,,030410,,,A*79
047492000,0$GVGNSP,047492000,46.31566,6.93596,0,0X03
047492000,0$GVGNSC,047492000,0.00,0,0,0X01
047492000,0$GVGNSAC,047492000,0,0,0,0,0,0,0,0,0,2,0X00000001,0X600
#$GPRMC,131133.000,A,4618.9396,N,00656.1574,E,0.00,,030410,,,A*78
047493000,0$GVGNSP,047493000,46.31566,6.93596,0,0X03
047493000,0$GVGNSC,047493000,0.00,0,0,0X01
047493000,0$GVGNSAC,047493000,0,0,0,0,0,0,0,0,0,2,0X00000001,0X600
#$GPGGA,131134.000,4618.9396,N,00656.1574,E,1,09,0.9,382.7,M,48.1,M,,0000*56
#$GPGSV,3,1,11,07,63,151,39,13,56,053,19,10,44,302,28,04,43,214,27*72
#$GPGSV,3,2,11,02,42,283,26,08,33,188,41,23,29,066,41,05,18,302,37*7B
#$GPGSV,3,3,11,16,09,036,,20,07,123,25,29,02,334,*4D
#$GPRMC,131134.000,A,4618.9396,N,00656.1574,E,0.00,,030410,,,A*7F
047494000,0$GVGNSP,047494000,46.31566,6.93596,382.7,0X07
047494000,0$GVGNSC,047494000,0.00,0,0,0X01
047494000,0$GVGNSAC,047494000,0,0.9,0,09,0,0,0,0,0,2,0X00000001,0X60A
047494000,10$GVGNSSAT,047494000,1,07,151,63,39,0X00,0X1F
047494000,09$GVGNSSAT,047494000,1,13,053,56,19,0X00,0X1F
047494000,08$GVGNSSAT,047494000,1,10,302,44,28,0X00,0X1F
047494000,07$GVGNSSAT,047494000,1,04,214,43,27,0X00,0X1F
047494000,06$GVGNSSAT,047494000,1,02,283,42,26,0X00,0X1F
047494000,05$GVGNSSAT,047494000,1,08,188,33,41,0X00,0X1F
047494000,04$GVGNSSAT,047494000,1,23,066,29,41,0X00,0X1F
047494000,03$GVGNSSAT,047494000,1,05,302,18,37,0X00,0X1F
047494000,02$GVGNSSAT,047494000,1,16,036,09,0,0X00,0X0F
047494000,01$GVGNSSAT,047494000,1,20,123,07,25,0X00,0X1F
047494000,00$GVGNSSAT,047494000,1,29,334,02,0,0X00,0X0F
#$GPRMC,131135.000,A,4618.9396,N,00656.1574,E,0.00,,030410,,,A*7E
047495000,0$GVGNSP,047495000,46.31566,6.93596,0,0X03
047495000,0$GVGNSC,047495000,0.00,0,0,0X01
047495000,0$GVGNSAC,047495000,0,0,0,0,0,0,0,0,0,2,0X00000001,0X600
#$GPRMC,131136.000,A,4618.9396,N,00656.1574,E,0.00,,030410,,,A*7D
047496000,0$GVGNSP,047496000,46.31566,6.93596,0,0X03
047496000,0$GVGNSC,047496000,0.00,0,0,0X01
047496000,0$GVGNSAC,047496000,0,0,0,0,0,0,0,0,0,2,0X00000001,0X600
#$GPRMC,131137.000,A,4618.9396,N,00656.1574,E,0.00,,030410,,,A*7C
047497000,0$GVGNSP,047497000,46.31566,6.93596,0,0X03
047497000,0$GVGNSC,047497000,0.00,0,0,0X01
047497000,0$GVGNSAC,047497000,0,0,0,0,0,0,0,0,0,2,0X00000001,0X600
#$GPGGA,131138.000,4618.9396,N,00656.1574,E,1,09,0.9,382.7,M,48.1,M,,0000*5A
#$GPGSV,3,1,11,07,63,151,40,13,56,053,22,10,44,302,28,04,43,214,27*74
#$GPGSV,3,2,11,02,42,283,26,08,33,188,41,23,29,066,41,05,18,302,37*7B
#$GPGSV,3,3,11,16,09,036,,20,07,123,26,29,02,334,*4E
#$GPRMC,131138.000,A,4618.9396,N,00656.1574,E,0.00,,030410,,,A*73
047498000,0$GVGNSP,047498000,46.31566,6.93596,382.7,0X07
047498000,0$GVGNSC,047498000,0.00,0,0,0X01
047498000,0$GVGNSAC,047498000,0,0.9,0,09,0,0,0,0,0,2,0X00000001,0X60A
047498000,10$GVGNSSAT,047498000,1,07,151,63,40,0X00,0X1F
047498000,09$GVGNSSAT,047498000,1,13,053,56,22,0X00,0X1F
047498000,08$GVGNSSAT,047498000,1,10,302,44,28,0X00,0X1F
047498000,07$GVGNSSAT,047498000,1,04,214,43,27,0X00,0X1F
047498000,06$GVGNSSAT,047498000,1,02,283,42,26,0X00,0X1F
047498000,05$GVGNSSAT,047498000,1,08,188,33,41,0X00,0X1F
047498000,04$GVGNSSAT,047498000,1,23,066,29,41,0X00,0X1F
047498000,03$GVGNSSAT,047498000,1,05,302,18,37,0X00,0X1F
047498000,02$GVGNSSAT,047498000,1,16,036,09,0,0X00,0X0F
047498000,01$GVGNSSAT,047498000,1,20,123,07,26,0X00,0X1F
047498000,00$GVGNSSAT,047498000,1,29,334,02,0,0X00,0X0F
#$GPRMC,131139.000,A,4618.9396,N,00656.1574,E,0.00,,030410,,,A*72
047499000,0$GVGNSP,047499000,46.31566,6.93596,0,0X03
047499000,0$GVGNSC,047499000,0.00,0,0,0X01
047499000,0$GVGNSAC,047499000,0,0,0,0,0,0,0,0,0,2,0X00000001,0X600
#$GPRMC,131140.000,A,4618.9396,N,00656.1574,E,0.00,,030410,,,A*7C
047500000,0$GVGNSP,047500000,46.31566,6.93596,0,0X03
047500000,0$GVGNSC,047500000,0.00,0,0,0X01
047500000,0$GVGNSAC,047500000,0,0,0,0,0,0,0,0,0,2,0X00000001,0X600
#$GPRMC,131141.000,A,4618.9396,N,00656.1574,E,0.00,,030410,,,A*7D
047501000,0$GVGNSP,047501000,46.31566,6.93596,0,0X03
047501000,0$GVGNSC,047501000,0.00,0,0,0X01
047501000,0$GVGNSAC,047501000,0,0,0,0,0,0,0,0,0,2,0X00000001,0X600
#$GPGGA,131142.000,4618.9396,N,00656.1574,E,1,09,0.9,382.7,M,48.1,M,,0000*57
#$GPGSV,3,1,11,07,63,151,40,13,56,053,12,10,44,302,27,04,43,214,28*77
#$GPGSV,3,2,11,02,42,283,27,08,33,188,40,23,29,066,41,05,18,302,37*7B
#$GPGSV,3,3,11,16,09,036,,20,07,123,26,29,02,334,20*4C
#$GPRMC,131142.000,A,4618.9396,N,00656.1574,E,0.00,,030410,,,A*7E
047502000,0$GVGNSP,047502000,46.31566,6.93596,382.7,0X07
047502000,0$GVGNSC,047502000,0.00,0,0,0X01
047502000,0$GVGNSAC,047502000,0,0.9,0,09,0,0,0,0,0,2,0X00000001,0X60A
047502000,10$GVGNSSAT,047502000,1,07,151,63,40,0X00,0X1F
047502000,09$GVGNSSAT,047502000,1,13,053,56,12,0X00,0X1F
047502000,08$GVGNSSAT,047502000,1,10,302,44,27,0X00,0X1F
047502000,07$GVGNSSAT,047502000,1,04,214,43,28,0X00,0X1F
047502000,06$GVGNSSAT,047502000,1,02,283,42,27,0X00,0X1F
047502000,05$GVGNSSAT,047502000,1,08,188,33,40,0X00,0X1F
047502000,04$GVGNSSAT,047502000,1,23,066,29,41,0X00,0X1F
047502000,03$GVGNSSAT,047502000,1,05,302,18,37,0X00,0X1F
047502000,02$GVGNSSAT,047502000,1,16,036,09,0,0X00,0X0F
047502000,01$GVGNSSAT,047502000,1,20,123,07,26,0X00,0X1F
047502000,00$GVGNSSAT,047502000,1,29,334,02,20,0X00,0X1F
#$GPRMC,131143.000,A,4618.9396,N,00656.1574,E,0.00,,030410,,,A*7F
047503000,0$GVGNSP,047503000,46.31566,6.93596,0,0X03
047503000,0$GVGNSC,047503000,0.00,0,0,0X01
047503000,0$GVGNSAC,047503000,0,0,0,0,0,0,0,0,0,2,0X00000001,0X600
#$GPRMC,131144.000,A,4618.9396,N,00656.1574,E,0.00,,030410,,,A*78
047504000,0$GVGNSP,047504000,46.31566,6.93596,0,0X03
047504000,0$GVGNSC,047504000,0.00,0,0,0X01
047504000,0$GVGNSAC,047504000,0,0,0,0,0,0,0,0,0,2,0X00000001,0X600
#$GPRMC,131145.000,A,4618.9400,N,00656.1613,E,5.32,76.63,030410,,,A*5D
047505000,0$GVGNSP,047505000,46.31567,6.93602,0,0X03
047505000,0$GVGNSC,047505000,2.74,0,76.63,0X05
047505000,0$GVGNSAC,047505000,0,0,0,0,0,0,0,0,0,2,0X00000001,0X600
#$GPGGA,131146.000,4618.9404,N,00656.1638,E,1,09,0.9,384.0,M,48.1,M,,0000*55
#$GPGSV,3,1,11,07,63,151,40,13,56,053,29,10,44,302,32,04,42,214,28*7A
#$GPGSV,3,2,11,02,42,283,26,08,33,188,40,23,29,066,42,05,18,302,29*76
#$GPGSV,3,3,11,16,09,036,,20,07,123,31,29,02,334,*48
#$GPRMC,131146.000,A,4618.9404,N,00656.1638,E,6.58,74.03,030410,,,A*58
047506000,0$GVGNSP,047506000,46.31567,6.93606,384.0,0X07
047506000,0$GVGNSC,047506000,3.39,0,74.03,0X05
047506000,0$GVGNSAC,047506000,0,0.9,0,09,0,0,0,0,0,2,0X00000001,0X60A
047506000,10$GVGNSSAT,047506000,1,07,151,63,40,0X00,0X1F
047506000,09$GVGNSSAT,047506000,1,13,053,56,29,0X00,0X1F
047506000,08$GVGNSSAT,047506000,1,10,302,44,32,0X00,0X1F
047506000,07$GVGNSSAT,047506000,1,04,214,42,28,0X00,0X1F
047506000,06$GVGNSSAT,047506000,1,02,283,42,26,0X00,0X1F
047506000,05$GVGNSSAT,047506000,1,08,188,33,40,0X00,0X1F
047506000,04$GVGNSSAT,047506000,1,23,066,29,42,0X00,0X1F
047506000,03$GVGNSSAT,047506000,1,05,302,18,29,0X00,0X1F
047506000,02$GVGNSSAT,047506000,1,16,036,09,0,0X00,0X0F
047506000,01$GVGNSSAT,047506000,1,20,123,07,31,0X00,0X1F
047506000,00$GVGNSSAT,047506000,1,29,334,02,0,0X00,0X0F
#$GPRMC,131147.000,A,4618.9409,N,00656.1670,E,9.29,76.11,030410,,,A*50
047507000,0$GVGNSP,047507000,46.31568,6.93612,0,0X03
047507000,0$GVGNSC,047507000,4.78,0,76.11,0X05
047507000,0$GVGNSAC,047507000,0,0,0,0,0,0,0,0,0,2,0X00000001,0X600
#$GPRMC,131148.000,A,4618.9417,N,00656.1715,E,12.57,75.87,030410,,,A*6D
047508000,0$GVGNSP,047508000,46.31569,6.93619,0,0X03
047508000,0$GVGNSC,047508000,6.47,0,75.87,0X05
047508000,0$GVGNSAC,047508000,0,0,0,0,0,0,0,0,0,2,0X00000001,0X600
#$GPRMC,131149.000,A,4618.9426,N,00656.1771,E,14.90,76.79,030410,,,A*63
047509000,0$GVGNSP,047509000,46.31571,6.93628,0,0X03
047509000,0$GVGNSC,047509000,7.67,0,76.79,0X05
047509000,0$GVGNSAC,047509000,0,0,0,0,0,0,0,0,0,2,0X00000001,0X600
#$GPGGA,131150.000,4618.9436,N,00656.1831,E,1,09,0.9,383.2,M,48.1,M,,0000*51
#$GPGSV,3,1,11,07,63,151,40,13,56,053,29,10,44,302,31,04,42,214,23*72
#$GPGSV,3,2,11,02,42,283,26,08,33,188,40,23,29,066,42,05,18,302,27*78
#$GPGSV,3,3,11,16,09,036,,20,07,123,24,29,02,334,*4C
#$GPRMC,131150.000,A,4618.9436,N,00656.1831,E,15.13,75.71,030410,,,A*60
047510000,0$GVGNSP,047510000,46.31573,6.93638,383.2,0X07
047510000,0$GVGNSC,047510000,7.78,0,75.71,0X05
047510000,0$GVGNSAC,047510000,0,0.9,0,09,0,0,0,0,0,2,0X00000001,0X60A
047510000,10$GVGNSSAT,047510000,1,07,151,63,40,0X00,0X1F
047510000,09$GVGNSSAT,047510000,1,13,053,56,29,0X00,0X1F
047510000,08$GVGNSSAT,047510000,1,10,302,44,31,0X00,0X1F
047510000,07$GVGNSSAT,047510000,1,04,214,42,23,0X00,0X1F
047510000,06$GVGNSSAT,047510000,1,02,283,42,26,0X00,0X1F
047510000,05$GVGNSSAT,047510000,1,08,188,33,40,0X00,0X1F
047510000,04$GVGNSSAT,047510000,1,23,066,29,42,0X00,0X1F
047510000,03$GVGNSSAT,047510000,1,05,302,18,27,0X00,0X1F
047510000,02$GVGNSSAT,047510000,1,16,036,09,0,0X00,0X0F
047510000,01$GVGNSSAT,047510000,1,20,123,07,24,0X00,0X1F
047510000,00$GVGNSSAT,047510000,1,29,334,02,0,0X00,0X0F
#$GPRMC,131151.000,A,4618.9446,N,00656.1893,E,15.75,76.28,030410,,,A*61
047511000,0$GVGNSP,047511000,46.31574,6.93649,0,0X03
047511000,0$GVGNSC,047511000,8.10,0,76.28,0X05
047511000,0$GVGNSAC,047511000,0,0,0,0,0,0,0,0,0,2,0X00000001,0X600
#$GPRMC,131152.000,A,4618.9456,N,00656.1956,E,15.75,75.78,030410,,,A*6D
047512000,0$GVGNSP,047512000,46.31576,6.93659,0,0X03
047512000,0$GVGNSC,047512000,8.10,0,75.78,0X05
047512000,0$GVGNSAC,047512000,0,0,0,0,0,0,0,0,0,2,0X00000001,0X600
#$GPRMC,131153.000,A,4618.9466,N,00656.2016,E,14.39,77.70,030410,,,A*62
047513000,0$GVGNSP,047513000,46.31578,6.93669,0,0X03
047513000,0$GVGNSC,047513000,7.40,0,77.70,0X05
047513000,0$GVGNSAC,047513000,0,0,0,0,0,0,0,0,0,2,0X00000001,0X600
#$GPGGA,131154.000,4618.9469,N,00656.2084,E,1,09,0.9,382.4,M,48.1,M,,0000*5D
#$GPGSV,3,1,11,07,63,151,40,13,56,053,28,10,44,302,31,04,42,214,24*74
#$GPGSV,3,2,11,02,42,283,27,08,33,188,40,23,29,066,42,05,18,302,26*78
#$GPGSV,3,3,11,16,09,036,,20,07,123,25,29,02,334,*4D
#$GPRMC,131154.000,A,4618.9469,N,00656.2084,E,12.79,78.29,030410,,,A*60
047514000,0$GVGNSP,047514000,46.31578,6.93681,382.4,0X07
047514000,0$GVGNSC,047514000,6.58,0,78.29,0X05
047514000,0$GVGNSAC,047514000,0,0.9,0,09,0,0,0,0,0,2,0X00000001,0X60A
047514000,10$GVGNSSAT,047514000,1,07,151,63,40,0X00,0X1F
047514000,09$GVGNSSAT,047514000,1,13,053,56,28,0X00,0X1F
047514000,08$GVGNSSAT,047514000,1,10,302,44,31,0X00,0X1F
047514000,07$GVGNSSAT,047514000,1,04,214,42,24,0X00,0X1F
047514000,06$GVGNSSAT,047514000,1,02,283,42,27,0X00,0X1F
047514000,05$GVGNSSAT,047514000,1,08,188,33,40,0X00,0X1F
047514000,04$GVGNSSAT,047514000,1,23,066,29,42,0X00,0X1F
047514000,03$GVGNSSAT,047514000,1,05,302,18,26,0X00,0X1F
047514000,02$GVGNSSAT,047514000,1,16,036,09,0,0X00,0X0F
047514000,01$GVGNSSAT,047514000,1,20,123,07,25,0X00,0X1F
047514000,00$GVGNSSAT,047514000,1,29,334,02,0,0X00,0X0F
#$GPRMC,131155.000,A,4618.9479,N,00656.2127,E,12.01,78.50,030410,,,A*69
047515000,0$GVGNSP,047515000,46.31580,6.93688,0,0X03
047515000,0$GVGNSC,047515000,6.18,0,78.50,0X05
047515000,0$GVGNSAC,047515000,0,0,0,0,0,0,0,0,0,2,0X00000001,0X600
#$GPRMC,131156.000,A,4618.9489,N,00656.2168,E,11.45,76.30,030410,,,A*65
047516000,0$GVGNSP,047516000,46.31582,6.93695,0,0X03
047516000,0$GVGNSC,047516000,5.89,0,76.30,0X05
047516000,0$GVGNSAC,047516000,0,0,0,0,0,0,0,0,0,2,0X00000001,0X600
#$GPRMC,131157.000,A,4618.9503,N,00656.2207,E,10.97,73.40,030410,,,A*61
047517000,0$GVGNSP,047517000,46.31584,6.93701,0,0X03
047517000,0$GVGNSC,047517000,5.64,0,73.40,0X05
047517000,0$GVGNSAC,047517000,0,0,0,0,0,0,0,0,0,2,0X00000001,0X600
#$GPGGA,131158.000,4618.9509,N,00656.2256,E,1,09,0.9,382.8,M,48.1,M,,0000*57
#$GPGSV,3,1,11,07,63,151,38,13,56,053,29,10,44,302,33,04,42,214,27*7B
#$GPGSV,3,2,11,02,42,283,29,08,33,188,40,23,29,066,42,05,18,302,30*71
#$GPGSV,3,3,11,16,09,036,,20,07,123,24,29,02,334,*4C
#$GPRMC,131158.000,A,4618.9509,N,00656.2256,E,12.38,75.52,030410,,,A*62
047518000,0$GVGNSP,047518000,46.31585,6.93709,382.8,0X07
047518000,0$GVGNSC,047518000,6.37,0,75.52,0X05
047518000,0$GVGNSAC,047518000,0,0.9,0,09,0,0,0,0,0,2,0X00000001,0X60A
047518000,10$GVGNSSAT,047518000,1,07,151,63,38,0X00,0X1F
047518000,09$GVGNSSAT,047518000,1,13,053,56,29,0X00,0X1F
047518000,08$GVGNSSAT,047518000,1,10,302,44,33,0X00,0X1F
047518000,07$GVGNSSAT,047518000,1,04,214,42,27,0X00,0X1F
047518000,06$GVGNSSAT,047518000,1,02,283,42,29,0X00,0X1F
047518000,05$GVGNSSAT,047518000,1,08,188,33,40,0X00,0X1F
047518000,04$GVGNSSAT,047518000,1,23,066,29,42,0X00,0X1F
047518000,03$GVGNSSAT,047518000,1,05,302,18,30,0X00,0X1F
047518000,02$GVGNSSAT,047518000,1,16,036,09,0,0X00,0X0F
047518000,01$GVGNSSAT,047518000,1,20,123,07,24,0X00,0X1F
047518000,00$GVGNSSAT,047518000,1,29,334,02,0,0X00,0X0F
#$GPRMC,131159.000,A,4618.9516,N,00656.2309,E,12.92,75.45,030410,,,A*60
047519000,0$GVGNSP,047519000,46.31586,6.93718,0,0X03
047519000,0$GVGNSC,047519000,6.65,0,75.45,0X05
047519000,0$GVGNSAC,047519000,0,0,0,0,0,0,0,0,0,2,0X00000001,0X600
#$GPRMC,131200.000,A,4618.9524,N,00656.2361,E,12.56,74.79,030410,,,A*66
047520000,0$GVGNSP,047520000,46.31587,6.93727,0,0X03
047520000,0$GVGNSC,047520000,6.46,0,74.79,0X05
047520000,0$GVGNSAC,047520000,0,0,0,0,0,0,0,0,0,2,0X00000001,0X600
#$GPRMC,131201.000,A,4618.9529,N,00656.2415,E,11.74,72.14,030410,,,A*60
047521000,0$GVGNSP,047521000,46.31588,6.93736,0,0X03
047521000,0$GVGNSC,047521000,6.04,0,72.14,0X05
047521000,0$GVGNSAC,047521000,0,0,0,0,0,0,0,0,0,2,0X00000001,0X600
#$GPGGA,131202.000,4618.9536,N,00656.2466,E,1,09,0.9,384.3,M,48.1,M,,0000*5F
#$GPGSV,3,1,11,07,63,151,40,13,56,053,32,10,44,302,33,04,42,214,26*7F
#$GPGSV,3,2,11,02,42,283,28,08,33,188,40,23,29,066,43,05,18,302,41*77
#$GPGSV,3,3,11,16,09,036,,20,07,123,28,29,02,334,*40
#$GPRMC,131202.000,A,4618.9536,N,00656.2466,E,11.38,71.26,030410,,,A*63
047522000,0$GVGNSP,047522000,46.31589,6.93744,384.3,0X07
047522000,0$GVGNSC,047522000,5.85,0,71.26,0X05
047522000,0$GVGNSAC,047522000,0,0.9,0,09,0,0,0,0,0,2,0X00000001,0X60A
047522000,10$GVGNSSAT,047522000,1,07,151,63,40,0X00,0X1F
047522000,09$GVGNSSAT,047522000,1,13,053,56,32,0X00,0X1F
047522000,08$GVGNSSAT,047522000,1,10,302,44,33,0X00,0X1F
047522000,07$GVGNSSAT,047522000,1,04,214,42,26,0X00,0X1F
047522000,06$GVGNSSAT,047522000,1,02,283,42,28,0X00,0X1F
047522000,05$GVGNSSAT,047522000,1,08,188,33,40,0X00,0X1F
047522000,04$GVGNSSAT,047522000,1,23,066,29,43,0X00,0X1F
047522000,03$GVGNSSAT,047522000,1,05,302,18,41,0X00,0X1F
047522000,02$GVGNSSAT,047522000,1,16,036,09,0,0X00,0X0F
047522000,01$GVGNSSAT,047522000,1,20,123,07,28,0X00,0X1F
047522000,00$GVGNSSAT,047522000,1,29,334,02,0,0X00,0X0F
#$GPRMC,131203.000,A,4618.9543,N,00656.2515,E,11.71,71.21,030410,,,A*6F
047523000,0$GVGNSP,047523000,46.31591,6.93752,0,0X03
047523000,0$GVGNSC,047523000,6.02,0,71.21,0X05
047523000,0$GVGNSAC,047523000,0,0,0,0,0,0,0,0,0,2,0X00000001,0X600
#$GPRMC,131204.000,A,4618.9553,N,00656.2563,E,12.47,72.73,030410,,,A*6A
047524000,0$GVGNSP,047524000,46.31592,6.93760,0,0X03
047524000,0$GVGNSC,047524000,6.42,0,72.73,0X05
047524000,0$GVGNSAC,047524000,0,0,0,0,0,0,0,0,0,2,0X00000001,0X600
#$GPRMC,131205.000,A,4618.9563,N,00656.2611,E,12.39,73.86,030410,,,A*6C
047525000,0$GVGNSP,047525000,46.31594,6.93769,0,0X03
047525000,0$GVGNSC,047525000,6.37,0,73.86,0X05
047525000,0$GVGNSAC,047525000,0,0,0,0,0,0,0,0,0,2,0X00000001,0X600
#$GPGGA,131206.000,4618.9571,N,00656.2655,E,1,09,0.9,385.0,M,48.1,M,,0000*58
#$GPGSV,3,1,11,07,63,151,40,13,56,053,28,10,44,302,33,04,42,214,26*74
#$GPGSV,3,2,11,02,42,283,21,08,33,188,40,23,29,066,43,05,18,302,33*7B
#$GPGSV,3,3,11,16,09,036,,20,07,123,33,29,02,334,*4A
#$GPRMC,131206.000,A,4618.9571,N,00656.2655,E,10.27,76.55,030410,,,A*6A
047526000,0$GVGNSP,047526000,46.31595,6.93776,385.0,0X07
047526000,0$GVGNSC,047526000,5.28,0,76.55,0X05
047526000,0$GVGNSAC,047526000,0,0.9,0,09,0,0,0,0,0,2,0X00000001,0X60A
047526000,10$GVGNSSAT,047526000,1,07,151,63,40,0X00,0X1F
047526000,09$GVGNSSAT,047526000,1,13,053,56,28,0X00,0X1F
047526000,08$GVGNSSAT,047526000,1,10,302,44,33,0X00,0X1F
047526000,07$GVGNSSAT,047526000,1,04,214,42,26,0X00,0X1F
047526000,06$GVGNSSAT,047526000,1,02,283,42,21,0X00,0X1F
047526000,05$GVGNSSAT,047526000,1,08,188,33,40,0X00,0X1F
047526000,04$GVGNSSAT,047526000,1,23,066,29,43,0X00,0X1F
047526000,03$GVGNSSAT,047526000,1,05,302,18,33,0X00,0X1F
047526000,02$GVGNSSAT,047526000,1,16,036,09,0,0X00,0X0F
047526000,01$GVGNSSAT,047526000,1,20,123,07,33,0X00,0X1F
047526000,00$GVGNSSAT,047526000,1,29,334,02,0,0X00,0X0F
#$GPRMC,131207.000,A,4618.9576,N,00656.2691,E,8.13,76.00,030410,,,A*5A
047527000,0$GVGNSP,047527000,46.31596,6.93782,0,0X03
047527000,0$GVGNSC,047527000,4.18,0,76.00,0X05
047527000,0$GVGNSAC,047527000,0,0,0,0,0,0,0,0,0,2,0X00000001,0X600
#$GPRMC,131208.000,A,4618.9580,N,00656.2719,E,6.12,73.85,030410,,,A*5A
047528000,0$GVGNSP,047528000,46.31597,6.93787,0,0X03
047528000,0$GVGNSC,047528000,3.15,0,73.85,0X05
047528000,0$GVGNSAC,047528000,0,0,0,0,0,0,0,0,0,2,0X00000001,0X600
#$GPRMC,131209.000,A,4618.9583,N,00656.2741,E,5.43,79.93,030410,,,A*5F
047529000,0$GVGNSP,047529000,46.31597,6.93790,0,0X03
047529000,0$GVGNSC,047529000,2.79,0,79.93,0X05
047529000,0$GVGNSAC,047529000,0,0,0,0,0,0,0,0,0,2,0X00000001,0X600
#$GPGGA,131210.000,4618.9586,N,00656.2761,E,1,09,0.9,384.6,M,48.1,M,,0000*56
#$GPGSV,3,1,11,07,63,151,40,13,56,053,29,10,44,302,33,04,42,214,23*70
#$GPGSV,3,2,11,02,42,283,30,08,33,188,40,23,29,066,43,05,18,302,34*7C
#$GPGSV,3,3,11,16,09,036,,20,07,123,31,29,02,334,23*49
#$GPRMC,131210.000,A,4618.9586,N,00656.2761,E,4.78,76.26,030410,,,A*58
047530000,0$GVGNSP,047530000,46.31598,6.93793,384.6,0X07
047530000,0$GVGNSC,047530000,2.46,0,76.26,0X05
047530000,0$GVGNSAC,047530000,0,0.9,0,09,0,0,0,0,0,2,0X00000001,0X60A
047530000,10$GVGNSSAT,047530000,1,07,151,63,40,0X00,0X1F
047530000,09$GVGNSSAT,047530000,1,13,053,56,29,0X00,0X1F
047530000,08$GVGNSSAT,047530000,1,10,302,44,33,0X00,0X1F
047530000,07$GVGNSSAT,047530000,1,04,214,42,23,0X00,0X1F
047530000,06$GVGNSSAT,047530000,1,02,283,42,30,0X00,0X1F
047530000,05$GVGNSSAT,047530000,1,08,188,33,40,0X00,0X1F
047530000,04$GVGNSSAT,047530000,1,23,066,29,43,0X00,0X1F
047530000,03$GVGNSSAT,047530000,1,05,302,18,34,0X00,0X1F
047530000,02$GVGNSSAT,047530000,1,16,036,09,0,0X00,0X0F
047530000,01$GVGNSSAT,047530000,1,20,123,07,31,0X00,0X1F
047530000,00$GVGNSSAT,047530000,1,29,334,02,23,0X00,0X1F
#$GPRMC,131211.000,A,4618.9590,N,00656.2776,E,4.61,73.08,030410,,,A*59
047531000,0$GVGNSP,047531000,46.31598,6.93796,0,0X03
047531000,0$GVGNSC,047531000,2.37,0,73.08,0X05
047531000,0$GVGNSAC,047531000,0,0,0,0,0,0,0,0,0,2,0X00000001,0X600
#$GPRMC,131212.000,A,4618.9594,N,00656.2800,E,7.23,76.85,030410,,,A*55
047532000,0$GVGNSP,047532000,46.31599,6.93800,0,0X03
047532000,0$GVGNSC,047532000,3.72,0,76.85,0X05
047532000,0$GVGNSAC,047532000,0,0,0,0,0,0,0,0,0,2,0X00000001,0X600
#$GPRMC,131213.000,A,4618.9597,N,00656.2832,E,8.16,77.61,030410,,,A*54
047533000,0$GVGNSP,047533000,46.31600,6.93805,0,0X03
047533000,0$GVGNSC,047533000,4.20,0,77.61,0X05
047533000,0$GVGNSAC,047533000,0,0,0,0,0,0,0,0,0,2,0X00000001,0X600
#$GPGGA,131214.000,4618.9601,N,00656.2867,E,1,09,0.9,384.5,M,48.1,M,,0000*54
#$GPGSV,3,1,11,07,63,151,40,13,56,053,29,10,44,302,33,04,42,214,29*7A
#$GPGSV,3,2,11,02,42,283,32,08,33,188,40,23,29,066,43,05,18,302,30*7A
#$GPGSV,3,3,11,16,09,036,,20,07,123,24,29,02,334,*4C
#$GPRMC,131214.000,A,4618.9601,N,00656.2867,E,9.27,77.35,030410,,,A*5D
047534000,0$GVGNSP,047534000,46.31600,6.93811,384.5,0X07
047534000,0$GVGNSC,047534000,4.77,0,77.35,0X05
047534000,0$GVGNSAC,047534000,0,0.9,0,09,0,0,0,0,0,2,0X00000001,0X60A
047534000,10$GVGNSSAT,047534000,1,07,151,63,40,0X00,0X1F
047534000,09$GVGNSSAT,047534000,1,13,053,56,29,0X00,0X1F
047534000,08$GVGNSSAT,047534000,1,10,302,44,33,0X00,0X1F
047534000,07$GVGNSSAT,047534000,1,04,214,42,29,0X00,0X1F
047534000,06$GVGNSSAT,047534000,1,02,283,42,32,0X00,0X1F
047534000,05$GVGNSSAT,047534000,1,08,188,33,40,0X00,0X1F
047534000,04$GVGNSSAT,047534000,1,23,066,29,43,0X00,0X1F
047534000,03$GVGNSSAT,047534000,1,05,302,18,30,0X00,0X1F
047534000,02$GVGNSSAT,047534000,1,16,036,09,0,0X00,0X0F
047534000,01$GVGNSSAT,047534000,1,20,123,07,24,0X00,0X1F
047534000,00$GVGNSSAT,047534000,1,29,334,02,0,0X00,0X0F
#$GPRMC,131215.000,A,4618.9608,N,00656.2906,E,10.42,74.53,030410,,,A*6B
047535000,0$GVGNSP,047535000,46.31601,6.93818,0,0X03
047535000,0$GVGNSC,047535000,5.36,0,74.53,0X05
047535000,0$GVGNSAC,047535000,0,0,0,0,0,0,0,0,0,2,0X00000001,0X600
#$GPRMC,131216.000,A,4618.9617,N,00656.2949,E,11.47,73.22,030410,,,A*68
047536000,0$GVGNSP,047536000,46.31603,6.93825,0,0X03
047536000,0$GVGNSC,047536000,5.90,0,73.22,0X05
047536000,0$GVGNSAC,047536000,0,0,0,0,0,0,0,0,0,2,0X00000001,0X600
#$GPRMC,131217.000,A,4618.9626,N,00656.2994,E,11.46,73.64,030410,,,A*68
047537000,0$GVGNSP,047537000,46.31604,6.93832,0,0X03
047537000,0$GVGNSC,047537000,5.90,0,73.64,0X05
047537000,0$GVGNSAC,047537000,0,0,0,0,0,0,0,0,0,2,0X00000001,0X600
#$GPGGA,131218.000,4618.9634,N,00656.3038,E,1,09,0.9,385.5,M,48.1,M,,0000*5C
#$GPGSV,3,1,11,07,63,151,41,13,56,053,35,10,44,302,33,04,42,214,27*78
#$GPGSV,3,2,11,02,42,283,25,08,33,188,40,23,29,067,43,05,19,302,29*74
#$GPGSV,3,3,11,16,09,036,,20,07,123,32,29,02,334,*4B
#$GPRMC,131218.000,A,4618.9634,N,00656.3038,E,11.08,76.51,030410,,,A*63
047538000,0$GVGNSP,047538000,46.31606,6.93840,385.5,0X07
047538000,0$GVGNSC,047538000,5.70,0,76.51,0X05
047538000,0$GVGNSAC,047538000,0,0.9,0,09,0,0,0,0,0,2,0X00000001,0X60A
047538000,10$GVGNSSAT,047538000,1,07,151,63,41,0X00,0X1F
047538000,09$GVGNSSAT,047538000,1,13,053,56,35,0X00,0X1F
047538000,08$GVGNSSAT,047538000,1,10,302,44,33,0X00,0X1F
047538000,07$GVGNSSAT,047538000,1,04,214,42,27,0X00,0X1F
047538000,06$GVGNSSAT,047538000,1,02,283,42,25,0X00,0X1F
047538000,05$GVGNSSAT,047538000,1,08,188,33,40,0X00,0X1F
047538000,04$GVGNSSAT,047538000,1,23,067,29,43,0X00,0X1F
047538000,03$GVGNSSAT,047538000,1,05,302,19,29,0X00,0X1F
047538000,02$GVGNSSAT,047538000,1,16,036,09,0,0X00,0X0F
047538000,01$GVGNSSAT,047538000,1,20,123,07,32,0X00,0X1F
047538000,00$GVGNSSAT,047538000,1,29,334,02,0,0X00,0X0F
#$GPRMC,131219.000,A,4618.9641,N,00656.3080,E,9.97,76.81,030410,,,A*51
047539000,0$GVGNSP,047539000,46.31607,6.93847,0,0X03
047539000,0$GVGNSC,047539000,5.13,0,76.81,0X05
047539000,0$GVGNSAC,047539000,0,0,0,0,0,0,0,0,0,2,0X00000001,0X600
#$GPRMC,131220.000,A,4618.9646,N,00656.3118,E,9.69,76.86,030410,,,A*5A
047540000,0$GVGNSP,047540000,46.31608,6.93853,0,0X03
047540000,0$GVGNSC,047540000,4.98,0,76.86,0X05
047540000,0$GVGNSAC,047540000,0,0,0,0,0,0,0,0,0,2,0X00000001,0X600
#$GPRMC,131221.000,A,4618.9652,N,00656.3155,E,9.30,76.20,030410,,,A*57
047541000,0$GVGNSP,047541000,46.31609,6.93859,0,0X03
047541000,0$GVGNSC,047541000,4.78,0,76.20,0X05
047541000,0$GVGNSAC,047541000,0,0,0,0,0,0,0,0,0,2,0X00000001,0X600
#$GPGGA,131222.000,4618.9658,N,00656.3191,E,1,08,1.1,385.7,M,48.1,M,,0000*57
#$GPGSV,3,1,11,07,63,151,41,13,56,053,30,10,44,302,34,04,42,214,28*75
#$GPGSV,3,2,11,02,42,283,25,08,33,188,40,23,29,067,43,05,19,302,*7F
#$GPGSV,3,3,11,16,09,036,,20,07,123,31,29,02,334,*48
#$GPRMC,131222.000,A,4618.9658,N,00656.3191,E,9.00,76.86,030410,,,A*59
047542000,0$GVGNSP,047542000,46.31610,6.93865,385.7,0X07
047542000,0$GVGNSC,047542000,4.63,0,76.86,0X05
047542000,0$GVGNSAC,047542000,0,1.1,0,08,0,0,0,0,0,2,0X00000001,0X60A
047542000,10$GVGNSSAT,047542000,1,07,151,63,41,0X00,0X1F
047542000,09$GVGNSSAT,047542000,1,13,053,56,30,0X00,0X1F
047542000,08$GVGNSSAT,047542000,1,10,302,44,34,0X00,0X1F
047542000,07$GVGNSSAT,047542000,1,04,214,42,28,0X00,0X1F
047542000,06$GVGNSSAT,047542000,1,02,283,42,25,0X00,0X1F
047542000,05$GVGNSSAT,047542000,1,08,188,33,40,0X00,0X1F
047542000,04$GVGNSSAT,047542000,1,23,067,29,43,0X00,0X1F
047542000,03$GVGNSSAT,047542000,1,05,302,19,0,0X00,0X0F
047542000,02$GVGNSSAT,047542000,1,16,036,09,0,0X00,0X0F
047542000,01$GVGNSSAT,047542000,1,20,123,07,31,0X00,0X1F
047542000,00$GVGNSSAT,047542000,1,29,334,02,0,0X00,0X0F
#$GPRMC,131223.000,A,4618.9663,N,00656.3225,E,8.76,77.25,030410,,,A*54
047543000,0$GVGNSP,047543000,46.31611,6.93871,0,0X03
047543000,0$GVGNSC,047543000,4.51,0,77.25,0X05
047543000,0$GVGNSAC,047543000,0,0,0,0,0,0,0,0,0,2,0X00000001,0X600
#$GPRMC,131224.000,A,4618.9668,N,00656.3259,E,8.71,76.66,030410,,,A*52
047544000,0$GVGNSP,047544000,46.31611,6.93877,0,0X03
047544000,0$GVGNSC,047544000,4.48,0,76.66,0X05
047544000,0$GVGNSAC,047544000,0,0,0,0,0,0,0,0,0,2,0X00000001,0X600
#$GPRMC,131225.000,A,4618.9674,N,00656.3295,E,9.46,75.30,030410,,,A*5B
047545000,0$GVGNSP,047545000,46.31612,6.93882,0,0X03
047545000,0$GVGNSC,047545000,4.87,0,75.30,0X05
047545000,0$GVGNSAC,047545000,0,0,0,0,0,0,0,0,0,2,0X00000001,0X600
#$GPGGA,131226.000,4618.9681,N,00656.3333,E,1,09,0.9,385.5,M,48.1,M,,0000*57
#$GPGSV,3,1,11,07,63,151,41,13,56,053,34,10,44,302,34,04,42,214,28*71
#$GPGSV,3,2,11,02,42,283,26,08,33,188,40,23,29,067,43,05,19,302,29*77
#$GPGSV,3,3,11,16,09,036,,20,07,123,23,29,02,334,*4B
#$GPRMC,131226.000,A,4618.9681,N,00656.3333,E,10.26,75.84,030410,,,A*6E
047546000,0$GVGNSP,047546000,46.31614,6.93889,385.5,0X07
047546000,0$GVGNSC,047546000,5.28,0,75.84,0X05
047546000,0$GVGNSAC,047546000,0,0.9,0,09,0,0,0,0,0,2,0X00000001,0X60A
047546000,10$GVGNSSAT,047546000,1,07,151,63,41,0X00,0X1F
047546000,09$GVGNSSAT,047546000,1,13,053,56,34,0X00,0X1F
047546000,08$GVGNSSAT,047546000,1,10,302,44,34,0X00,0X1F
047546000,07$GVGNSSAT,047546000,1,04,214,42,28,0X00,0X1F
047546000,06$GVGNSSAT,047546000,1,02,283,42,26,0X00,0X1F
047546000,05$GVGNSSAT,047546000,1,08,188,33,40,0X00,0X1F
047546000,04$GVGNSSAT,047546000,1,23,067,29,43,0X00,0X1F
047546000,03$GVGNSSAT,047546000,1,05,302,19,29,0X00,0X1F
047546000,02$GVGNSSAT,047546000,1,16,036,09,0,0X00,0X0F
047546000,01$GVGNSSAT,047546000,1,20,123,07,23,0X00,0X1F
047546000,00$GVGNSSAT,047546000,1,29,334,02,0,0X00,0X0F
#$GPRMC,131227.000,A,4618.9688,N,00656.3370,E,9.72,74.10,030410,,,A*54
047547000,0$GVGNSP,047547000,46.31615,6.93895,0,0X03
047547000,0$GVGNSC,047547000,5.00,0,74.10,0X05
047547000,0$GVGNSAC,047547000,0,0,0,0,0,0,0,0,0,2,0X00000001,0X600
#$GPRMC,131228.000,A,4618.9696,N,00656.3407,E,9.26,70.24,030410,,,A*51
047548000,0$GVGNSP,047548000,46.31616,6.93901,0,0X03
047548000,0$GVGNSC,047548000,4.76,0,70.24,0X05
047548000,0$GVGNSAC,047548000,0,0,0,0,0,0,0,0,0,2,0X00000001,0X600
#$GPRMC,131229.000,A,4618.9705,N,00656.3439,E,8.13,64.43,030410,,,A*55
047549000,0$GVGNSP,047549000,46.31618,6.93907,0,0X03
047549000,0$GVGNSC,047549000,4.18,0,64.43,0X05
047549000,0$GVGNSAC,047549000,0,0,0,0,0,0,0,0,0,2,0X00000001,0X600
#$GPGGA,131230.000,4618.9715,N,00656.3467,E,1,09,0.9,385.1,M,48.1,M,,0000*5E
#$GPGSV,3,1,11,07,63,151,41,13,56,053,35,10,44,302,29,04,42,214,34*71
#$GPGSV,3,2,11,02,42,283,33,08,33,188,36,23,29,067,43,05,19,302,31*7B
#$GPGSV,3,3,11,16,09,036,,20,07,123,20,29,02,334,*48
#$GPRMC,131230.000,A,4618.9715,N,00656.3467,E,7.44,63.54,030410,,,A*5B
047550000,0$GVGNSP,047550000,46.31619,6.93911,385.1,0X07
047550000,0$GVGNSC,047550000,3.83,0,63.54,0X05
047550000,0$GVGNSAC,047550000,0,0.9,0,09,0,0,0,0,0,2,0X00000001,0X60A
047550000,10$GVGNSSAT,047550000,1,07,151,63,41,0X00,0X1F
047550000,09$GVGNSSAT,047550000,1,13,053,56,35,0X00,0X1F
047550000,08$GVGNSSAT,047550000,1,10,302,44,29,0X00,0X1F
047550000,07$GVGNSSAT,047550000,1,04,214,42,34,0X00,0X1F
047550000,06$GVGNSSAT,047550000,1,02,283,42,33,0X00,0X1F
047550000,05$GVGNSSAT,047550000,1,08,188,33,36,0X00,0X1F
047550000,04$GVGNSSAT,047550000,1,23,067,29,43,0X00,0X1F
047550000,03$GVGNSSAT,047550000,1,05,302,19,31,0X00,0X1F
047550000,02$GVGNSSAT,047550000,1,16,036,09,0,0X00,0X0F
047550000,01$GVGNSSAT,047550000,1,20,123,07,20,0X00,0X1F
047550000,00$GVGNSSAT,047550000,1,29,334,02,0,0X00,0X0F
#$GPRMC,131231.000,A,4618.9724,N,00656.3493,E,7.65,66.33,030410,,,A*54
047551000,0$GVGNSP,047551000,46.31621,6.93915,0,0X03
047551000,0$GVGNSC,047551000,3.94,0,66.33,0X05
047551000,0$GVGNSAC,047551000,0,0,0,0,0,0,0,0,0,2,0X00000001,0X600
#$GPRMC,131232.000,A,4618.9732,N,00656.3527,E,10.01,74.08,030410,,,A*61
047552000,0$GVGNSP,047552000,46.31622,6.93921,0,0X03
047552000,0$GVGNSC,047552000,5.15,0,74.08,0X05
047552000,0$GVGNSAC,047552000,0,0,0,0,0,0,0,0,0,2,0X00000001,0X600
#$GPRMC,131233.000,A,4618.9738,N,00656.3568,E,11.00,78.19,030410,,,A*6D
047553000,0$GVGNSP,047553000,46.31623,6.93928,0,0X03
047553000,0$GVGNSC,047553000,5.66,0,78.19,0X05
047553000,0$GVGNSAC,047553000,0,0,0,0,0,0,0,0,0,2,0X00000001,0X600
#$GPGGA,131234.000,4618.9738,N,00656.3614,E,1,09,0.9,385.2,M,48.1,M,,0000*50
#$GPGSV,3,1,11,07,63,151,41,13,56,053,35,10,44,302,29,04,42,214,39*7C
#$GPGSV,3,2,11,02,42,283,31,08,33,188,38,23,29,067,37,05,19,302,28*7C
#$GPGSV,3,3,11,16,09,036,,20,07,123,21,29,02,334,*49
#$GPRMC,131234.000,A,4618.9738,N,00656.3614,E,11.25,98.65,030410,,,A*60
047554000,0$GVGNSP,047554000,46.31623,6.93936,385.2,0X07
047554000,0$GVGNSC,047554000,5.79,0,98.65,0X05
047554000,0$GVGNSAC,047554000,0,0.9,0,09,0,0,0,0,0,2,0X00000001,0X60A
047554000,10$GVGNSSAT,047554000,1,07,151,63,41,0X00,0X1F
047554000,09$GVGNSSAT,047554000,1,13,053,56,35,0X00,0X1F
047554000,08$GVGNSSAT,047554000,1,10,302,44,29,0X00,0X1F
047554000,07$GVGNSSAT,047554000,1,04,214,42,39,0X00,0X1F
047554000,06$GVGNSSAT,047554000,1,02,283,42,31,0X00,0X1F
047554000,05$GVGNSSAT,047554000,1,08,188,33,38,0X00,0X1F
047554000,04$GVGNSSAT,047554000,1,23,067,29,37,0X00,0X1F
047554000,03$GVGNSSAT,047554000,1,05,302,19,28,0X00,0X1F
047554000,02$GVGNSSAT,047554000,1,16,036,09,0,0X00,0X0F
047554000,01$GVGNSSAT,047554000,1,20,123,07,21,0X00,0X1F
047554000,00$GVGNSSAT,047554000,1,29,334,02,0,0X00,0X0F
#$GPRMC,131235.000,A,4618.9724,N,00656.3663,E,14.29,117.68,030410,,,A*5E
047555000,0$GVGNSP,047555000,46.31621,6.93944,0,0X03
047555000,0$GVGNSC,047555000,7.35,0,117.68,0X05
047555000,0$GVGNSAC,047555000,0,0,0,0,0,0,0,0,0,2,0X00000001,0X600
#$GPRMC,131236.000,A,4618.9698,N,00656.3713,E,16.48,131.91,030410,,,A*5A
047556000,0$GVGNSP,047556000,46.31616,6.93952,0,0X03
047556000,0$GVGNSC,047556000,8.48,0,131.91,0X05
047556000,0$GVGNSAC,047556000,0,0,0,0,0,0,0,0,0,2,0X00000001,0X600
#$GPRMC,131237.000,A,4618.9661,N,00656.3762,E,19.85,139.92,030410,,,A*5E
047557000,0$GVGNSP,047557000,46.31610,6.93960,0,0X03
047557000,0$GVGNSC,047557000,10.21,0,139.92,0X05
047557000,0$GVGNSAC,047557000,0,0,0,0,0,0,0,0,0,2,0X00000001,0X600
#$GPGGA,131238.000,4618.9612,N,00656.3815,E,1,09,0.9,384.6,M,48.1,M,,0000*5F
#$GPGSV,3,1,11,07,63,151,40,13,56,053,43,10,44,302,27,04,42,214,44*78
#$GPGSV,3,2,11,02,42,283,29,08,33,188,38,23,29,067,38,05,19,302,24*76
#$GPGSV,3,3,11,16,09,036,,20,07,123,21,29,02,334,*49
#$GPRMC,131238.000,A,4618.9612,N,00656.3815,E,23.32,145.27,030410,,,A*5A
047558000,0$GVGNSP,047558000,46.31602,6.93969,384.6,0X07
047558000,0$GVGNSC,047558000,12.00,0,145.27,0X05
047558000,0$GVGNSAC,047558000,0,0.9,0,09,0,0,0,0,0,2,0X00000001,0X60A
047558000,10$GVGNSSAT,047558000,1,07,151,63,40,0X00,0X1F
047558000,09$GVGNSSAT,047558000,1,13,053,56,43,0X00,0X1F
047558000,08$GVGNSSAT,047558000,1,10,302,44,27,0X00,0X1F
047558000,07$GVGNSSAT,047558000,1,04,214,42,44,0X00,0X1F
047558000,06$GVGNSSAT,047558000,1,02,283,42,29,0X00,0X1F
047558000,05$GVGNSSAT,047558000,1,08,188,33,38,0X00,0X1F
047558000,04$GVGNSSAT,047558000,1,23,067,29,38,0X00,0X1F
047558000,03$GVGNSSAT,047558000,1,05,302,19,24,0X00,0X1F
047558000,02$GVGNSSAT,047558000,1,16,036,09,0,0X00,0X0F
047558000,01$GVGNSSAT,047558000,1,20,123,07,21,0X00,0X1F
