#Log file generated from the nmea2gvl.py converter
#Original NMEA file: 20100403_Z205_Switzerland_short.txt
#Receiver type: z205
#By courtesy of Continental Automotive
0,0$GVGNSVER,4,0,0
0,0$GVSNSVER,4,0,0
#$GPRMC,131032.877,A,4618.9395,N,00656.1347,E,0.00,,030410,,,A*75
047432000,0,$GVGNSTIM,047432000,2010,03,03,13,10,32,0,0,0,0X00000003
047432000,0,$GVGNSPOS,047432000,46.3156583,6.9355783,0,0,0.00,0,0,0,0,0,0,0,0,0,0,0,0,0,3,0X00000001,0,0,0X000C0013
#$GPRMC,131033.056,A,4618.9401,N,00656.1340,E,0.00,,030410,,,A*72
047433000,0,$GVGNSTIM,047433000,2010,03,03,13,10,33,0,0,0,0X00000003
047433000,0,$GVGNSPOS,047433000,46.3156683,6.9355667,0,0,0.00,0,0,0,0,0,0,0,0,0,0,0,0,0,3,0X00000001,0,0,0X000C0013
#$GPRMC,131033.260,A,4618.9408,N,00656.1344,E,0.62,129.54,030410,,,A*69
047433000,0,$GVGNSTIM,047433000,2010,03,03,13,10,33,0,0,0,0X00000003
047433000,0,$GVGNSPOS,047433000,46.3156800,6.9355733,0,0,0.32,0,129.54,0,0,0,0,0,0,0,0,0,0,0,3,0X00000001,0,0,0X000C0053
#$GPGGA,131034.000,4618.9473,N,00656.1316,E,1,07,1.0,403.3,M,48.1,M,,0000*55
#$GPGSV,3,1,11,07,63,152,29,13,57,053,39,10,43,302,33,04,43,215,36*7F
#$GPGSV,3,2,11,02,42,284,35,08,32,188,33,23,30,066,40,05,18,302,37*73
#$GPGSV,3,3,11,20,07,122,,29,02,334,,16,09,036,*4B
#$GPRMC,131034.000,A,4618.9473,N,00656.1316,E,0.35,150.55,030410,,,A*6C
047434000,0,$GVGNSTIM,047434000,2010,03,03,13,10,34,0,0,0,0X00000003
047434000,0,$GVGNSPOS,047434000,46.3157883,6.9355267,403.3,0,0.18,0,150.55,0,1.0,0,07,0,0,0,0,0,0,0,3,0X00000001,0,0,0X000C0557
047434000,10,$GVGNSSAT,047434000,1,07,152,63,29,0X00,0,0X1F
047434000,09,$GVGNSSAT,047434000,1,13,053,57,39,0X00,0,0X1F
047434000,08,$GVGNSSAT,047434000,1,10,302,43,33,0X00,0,0X1F
047434000,07,$GVGNSSAT,047434000,1,04,215,43,36,0X00,0,0X1F
047434000,06,$GVGNSSAT,047434000,1,02,284,42,35,0X00,0,0X1F
047434000,05,$GVGNSSAT,047434000,1,08,188,32,33,0X00,0,0X1F
047434000,04,$GVGNSSAT,047434000,1,23,066,30,40,0X00,0,0X1F
047434000,03,$GVGNSSAT,047434000,1,05,302,18,37,0X00,0,0X1F
047434000,02,$GVGNSSAT,047434000,1,20,122,07,0,0X00,0,0X0F
047434000,01,$GVGNSSAT,047434000,1,29,334,02,0,0X00,0,0X0F
047434000,00,$GVGNSSAT,047434000,1,16,036,09,0,0X00,0,0X0F
#$GPRMC,131035.000,A,4618.9464,N,00656.1324,E,0.00,,030410,,,A*76
047435000,0,$GVGNSTIM,047435000,2010,03,03,13,10,35,0,0,0,0X00000003
047435000,0,$GVGNSPOS,047435000,46.3157733,6.9355400,0,0,0.00,0,0,0,0,0,0,0,0,0,0,0,0,0,3,0X00000001,0,0,0X000C0013
#$GPRMC,131036.000,A,4618.9464,N,00656.1324,E,0.00,,030410,,,A*75
047436000,0,$GVGNSTIM,047436000,2010,03,03,13,10,36,0,0,0,0X00000003
047436000,0,$GVGNSPOS,047436000,46.3157733,6.9355400,0,0,0.00,0,0,0,0,0,0,0,0,0,0,0,0,0,3,0X00000001,0,0,0X000C0013
#$GPRMC,131037.000,A,4618.9464,N,00656.1324,E,0.00,,030410,,,A*74
047437000,0,$GVGNSTIM,047437000,2010,03,03,13,10,37,0,0,0,0X00000003
047437000,0,$GVGNSPOS,047437000,46.3157733,6.9355400,0,0,0.00,0,0,0,0,0,0,0,0,0,0,0,0,0,3,0X00000001,0,0,0X000C0013
#$GPGGA,131038.000,4618.9464,N,00656.1324,E,1,09,0.9,398.0,M,48.1,M,,0000*5E
#$GPGSV,3,1,11,07,63,152,31,13,57,053,40,10,43,302,35,04,43,214,36*7F
#$GPGSV,3,2,11,02,42,284,37,08,32,188,36,23,30,066,40,05,18,302,38*7B
#$GPGSV,3,3,11,16,09,036,,20,07,122,23,29,02,334,*4A
#$GPRMC,131038.000,A,4618.9464,N,00656.1324,E,0.00,,030410,,,A*7B
047438000,0,$GVGNSTIM,047438000,2010,03,03,13,10,38,0,0,0,0X00000003
047438000,0,$GVGNSPOS,047438000,46.3157733,6.9355400,398.0,0,0.00,0,0,0,0.9,0,09,0,0,0,0,0,0,0,3,0X00000001,0,0,0X000C0517
047438000,10,$GVGNSSAT,047438000,1,07,152,63,31,0X00,0,0X1F
047438000,09,$GVGNSSAT,047438000,1,13,053,57,40,0X00,0,0X1F
047438000,08,$GVGNSSAT,047438000,1,10,302,43,35,0X00,0,0X1F
047438000,07,$GVGNSSAT,047438000,1,04,214,43,36,0X00,0,0X1F
047438000,06,$GVGNSSAT,047438000,1,02,284,42,37,0X00,0,0X1F
047438000,05,$GVGNSSAT,047438000,1,08,188,32,36,0X00,0,0X1F
047438000,04,$GVGNSSAT,047438000,1,23,066,30,40,0X00,0,0X1F
047438000,03,$GVGNSSAT,047438000,1,05,302,18,38,0X00,0,0X1F
047438000,02,$GVGNSSAT,047438000,1,16,036,09,0,0X00,0,0X0F
047438000,01,$GVGNSSAT,047438000,1,20,122,07,23,0X00,0,0X1F
047438000,00,$GVGNSSAT,047438000,1,29,334,02,0,0X00,0,0X0F
#$GPRMC,131039.000,A,4618.9464,N,00656.1324,E,0.00,,030410,,,A*7A
047439000,0,$GVGNSTIM,047439000,2010,03,03,13,10,39,0,0,0,0X00000003
047439000,0,$GVGNSPOS,047439000,46.3157733,6.9355400,0,0,0.00,0,0,0,0,0,0,0,0,0,0,0,0,0,3,0X00000001,0,0,0X000C0013
#$GPRMC,131040.000,A,4618.9464,N,00656.1324,E,0.00,,030410,,,A*74
047440000,0,$GVGNSTIM,047440000,2010,03,03,13,10,40,0,0,0,0X00000003
047440000,0,$GVGNSPOS,047440000,46.3157733,6.9355400,0,0,0.00,0,0,0,0,0,0,0,0,0,0,0,0,0,3,0X00000001,0,0,0X000C0013
#$GPRMC,131041.000,A,4618.9464,N,00656.1324,E,0.00,,030410,,,A*75
047441000,0,$GVGNSTIM,047441000,2010,03,03,13,10,41,0,0,0,0X00000003
047441000,0,$GVGNSPOS,047441000,46.3157733,6.9355400,0,0,0.00,0,0,0,0,0,0,0,0,0,0,0,0,0,3,0X00000001,0,0,0X000C0013
#$GPGGA,131042.000,4618.9464,N,00656.1324,E,1,09,0.9,398.0,M,48.1,M,,0000*53
#$GPGSV,3,1,11,07,63,152,31,13,57,053,40,10,43,302,35,04,43,214,37*7E
#$GPGSV,3,2,11,02,42,284,38,08,32,188,36,23,30,066,41,05,18,302,38*75
#$GPGSV,3,3,11,16,09,036,,20,07,122,24,29,02,334,*4D
#$GPRMC,131042.000,A,4618.9464,N,00656.1324,E,0.00,,030410,,,A*76
047442000,0,$GVGNSTIM,047442000,2010,03,03,13,10,42,0,0,0,0X00000003
047442000,0,$GVGNSPOS,047442000,46.3157733,6.9355400,398.0,0,0.00,0,0,0,0.9,0,09,0,0,0,0,0,0,0,3,0X00000001,0,0,0X000C0517
047442000,10,$GVGNSSAT,047442000,1,07,152,63,31,0X00,0,0X1F
047442000,09,$GVGNSSAT,047442000,1,13,053,57,40,0X00,0,0X1F
047442000,08,$GVGNSSAT,047442000,1,10,302,43,35,0X00,0,0X1F
047442000,07,$GVGNSSAT,047442000,1,04,214,43,37,0X00,0,0X1F
047442000,06,$GVGNSSAT,047442000,1,02,284,42,38,0X00,0,0X1F
047442000,05,$GVGNSSAT,047442000,1,08,188,32,36,0X00,0,0X1F
047442000,04,$GVGNSSAT,047442000,1,23,066,30,41,0X00,0,0X1F
047442000,03,$GVGNSSAT,047442000,1,05,302,18,38,0X00,0,0X1F
047442000,02,$GVGNSSAT,047442000,1,16,036,09,0,0X00,0,0X0F
047442000,01,$GVGNSSAT,047442000,1,20,122,07,24,0X00,0,0X1F
047442000,00,$GVGNSSAT,047442000,1,29,334,02,0,0X00,0,0X0F
#$GPRMC,131043.000,A,4618.9464,N,00656.1324,E,0.00,,030410,,,A*77
047443000,0,$GVGNSTIM,047443000,2010,03,03,13,10,43,0,0,0,0X00000003
047443000,0,$GVGNSPOS,047443000,46.3157733,6.9355400,0,0,0.00,0,0,0,0,0,0,0,0,0,0,0,0,0,3,0X00000001,0,0,0X000C0013
#$GPRMC,131044.000,A,4618.9464,N,00656.1324,E,0.00,,030410,,,A*70
047444000,0,$GVGNSTIM,047444000,2010,03,03,13,10,44,0,0,0,0X00000003
047444000,0,$GVGNSPOS,047444000,46.3157733,6.9355400,0,0,0.00,0,0,0,0,0,0,0,0,0,0,0,0,0,3,0X00000001,0,0,0X000C0013
#$GPRMC,131045.000,A,4618.9464,N,00656.1324,E,0.00,,030410,,,A*71
047445000,0,$GVGNSTIM,047445000,2010,03,03,13,10,45,0,0,0,0X00000003
047445000,0,$GVGNSPOS,047445000,46.3157733,6.9355400,0,0,0.00,0,0,0,0,0,0,0,0,0,0,0,0,0,3,0X00000001,0,0,0X000C0013
#$GPGGA,131046.000,4618.9464,N,00656.1324,E,1,09,0.9,398.0,M,48.1,M,,0000*57
#$GPGSV,3,1,11,07,63,152,29,13,56,053,41,10,44,302,38,04,43,214,36*7C
#$GPGSV,3,2,11,02,42,284,39,08,32,188,36,23,30,066,40,05,18,302,39*74
#$GPGSV,3,3,11,16,09,036,,20,07,122,24,29,02,334,*4D
#$GPRMC,131046.000,A,4618.9464,N,00656.1324,E,0.00,,030410,,,A*72
047446000,0,$GVGNSTIM,047446000,2010,03,03,13,10,46,0,0,0,0X00000003
047446000,0,$GVGNSPOS,047446000,46.3157733,6.9355400,398.0,0,0.00,0,0,0,0.9,0,09,0,0,0,0,0,0,0,3,0X00000001,0,0,0X000C0517
047446000,10,$GVGNSSAT,047446000,1,07,152,63,29,0X00,0,0X1F
047446000,09,$GVGNSSAT,047446000,1,13,053,56,41,0X00,0,0X1F
047446000,08,$GVGNSSAT,047446000,1,10,302,44,38,0X00,0,0X1F
047446000,07,$GVGNSSAT,047446000,1,04,214,43,36,0X00,0,0X1F
047446000,06,$GVGNSSAT,047446000,1,02,284,42,39,0X00,0,0X1F
047446000,05,$GVGNSSAT,047446000,1,08,188,32,36,0X00,0,0X1F
047446000,04,$GVGNSSAT,047446000,1,23,066,30,40,0X00,0,0X1F
047446000,03,$GVGNSSAT,047446000,1,05,302,18,39,0X00,0,0X1F
047446000,02,$GVGNSSAT,047446000,1,16,036,09,0,0X00,0,0X0F
047446000,01,$GVGNSSAT,047446000,1,20,122,07,24,0X00,0,0X1F
047446000,00,$GVGNSSAT,047446000,1,29,334,02,0,0X00,0,0X0F
#$GPRMC,131047.000,A,4618.9464,N,00656.1324,E,0.00,,030410,,,A*73
047447000,0,$GVGNSTIM,047447000,2010,03,03,13,10,47,0,0,0,0X00000003
047447000,0,$GVGNSPOS,047447000,46.3157733,6.9355400,0,0,0.00,0,0,0,0,0,0,0,0,0,0,0,0,0,3,0X00000001,0,0,0X000C0013
#$GPRMC,131048.000,A,4618.9464,N,00656.1324,E,0.00,,030410,,,A*7C
047448000,0,$GVGNSTIM,047448000,2010,03,03,13,10,48,0,0,0,0X00000003
047448000,0,$GVGNSPOS,047448000,46.3157733,6.9355400,0,0,0.00,0,0,0,0,0,0,0,0,0,0,0,0,0,3,0X00000001,0,0,0X000C0013
#$GPRMC,131049.000,A,4618.9464,N,00656.1324,E,0.00,,030410,,,A*7D
047449000,0,$GVGNSTIM,047449000,2010,03,03,13,10,49,0,0,0,0X00000003
047449000,0,$GVGNSPOS,047449000,46.3157733,6.9355400,0,0,0.00,0,0,0,0,0,0,0,0,0,0,0,0,0,3,0X00000001,0,0,0X000C0013
#$GPGGA,131050.000,4618.9464,N,00656.1324,E,1,08,1.0,398.0,M,48.1,M,,0000*59
#$GPGSV,3,1,11,07,63,152,29,13,56,053,41,10,44,302,38,04,43,214,36*7C
#$GPGSV,3,2,11,02,42,284,38,08,32,188,35,23,30,066,40,05,18,302,39*76
#$GPGSV,3,3,11,16,09,036,,20,07,122,,29,02,334,*4B
#$GPRMC,131050.000,A,4618.9464,N,00656.1324,E,0.00,,030410,,,A*75
047450000,0,$GVGNSTIM,047450000,2010,03,03,13,10,50,0,0,0,0X00000003
047450000,0,$GVGNSPOS,047450000,46.3157733,6.9355400,398.0,0,0.00,0,0,0,1.0,0,08,0,0,0,0,0,0,0,3,0X00000001,0,0,0X000C0517
047450000,10,$GVGNSSAT,047450000,1,07,152,63,29,0X00,0,0X1F
047450000,09,$GVGNSSAT,047450000,1,13,053,56,41,0X00,0,0X1F
047450000,08,$GVGNSSAT,047450000,1,10,302,44,38,0X00,0,0X1F
047450000,07,$GVGNSSAT,047450000,1,04,214,43,36,0X00,0,0X1F
047450000,06,$GVGNSSAT,047450000,1,02,284,42,38,0X00,0,0X1F
047450000,05,$GVGNSSAT,047450000,1,08,188,32,35,0X00,0,0X1F
047450000,04,$GVGNSSAT,047450000,1,23,066,30,40,0X00,0,0X1F
047450000,03,$GVGNSSAT,047450000,1,05,302,18,39,0X00,0,0X1F
047450000,02,$GVGNSSAT,047450000,1,16,036,09,0,0X00,0,0X0F
047450000,01,$GVGNSSAT,047450000,1,20,122,07,0,0X00,0,0X0F
047450000,00,$GVGNSSAT,047450000,1,29,334,02,0,0X00,0,0X0F
#$GPRMC,131051.000,A,4618.9464,N,00656.1324,E,0.00,,030410,,,A*74
047451000,0,$GVGNSTIM,047451000,2010,03,03,13,10,51,0,0,0,0X00000003
047451000,0,$GVGNSPOS,047451000,46.3157733,6.9355400,0,0,0.00,0,0,0,0,0,0,0,0,0,0,0,0,0,3,0X00000001,0,0,0X000C0013
#$GPRMC,131052.000,A,4618.9464,N,00656.1324,E,0.00,,030410,,,A*77
047452000,0,$GVGNSTIM,047452000,2010,03,03,13,10,52,0,0,0,0X00000003
047452000,0,$GVGNSPOS,047452000,46.3157733,6.9355400,0,0,0.00,0,0,0,0,0,0,0,0,0,0,0,0,0,3,0X00000001,0,0,0X000C0013
#$GPRMC,131053.000,A,4618.9464,N,00656.1324,E,0.00,,030410,,,A*76
047453000,0,$GVGNSTIM,047453000,2010,03,03,13,10,53,0,0,0,0X00000003
047453000,0,$GVGNSPOS,047453000,46.3157733,6.9355400,0,0,0.00,0,0,0,0,0,0,0,0,0,0,0,0,0,3,0X00000001,0,0,0X000C0013
#$GPGGA,131054.000,4618.9464,N,00656.1324,E,1,08,1.0,398.0,M,48.1,M,,0000*5D
#$GPGSV,3,1,11,07,63,152,29,13,56,053,42,10,44,302,38,04,43,214,37*7E
#$GPGSV,3,2,11,02,42,284,39,08,32,188,35,23,30,066,40,05,18,302,40*79
#$GPGSV,3,3,11,16,09,036,,20,07,122,,29,02,334,*4B
#$GPRMC,131054.000,A,4618.9464,N,00656.1324,E,0.00,,030410,,,A*71
047454000,0,$GVGNSTIM,047454000,2010,03,03,13,10,54,0,0,0,0X00000003
047454000,0,$GVGNSPOS,047454000,46.3157733,6.9355400,398.0,0,0.00,0,0,0,1.0,0,08,0,0,0,0,0,0,0,3,0X00000001,0,0,0X000C0517
047454000,10,$GVGNSSAT,047454000,1,07,152,63,29,0X00,0,0X1F
047454000,09,$GVGNSSAT,047454000,1,13,053,56,42,0X00,0,0X1F
047454000,08,$GVGNSSAT,047454000,1,10,302,44,38,0X00,0,0X1F
047454000,07,$GVGNSSAT,047454000,1,04,214,43,37,0X00,0,0X1F
047454000,06,$GVGNSSAT,047454000,1,02,284,42,39,0X00,0,0X1F
047454000,05,$GVGNSSAT,047454000,1,08,188,32,35,0X00,0,0X1F
047454000,04,$GVGNSSAT,047454000,1,23,066,30,40,0X00,0,0X1F
047454000,03,$GVGNSSAT,047454000,1,05,302,18,40,0X00,0,0X1F
047454000,02,$GVGNSSAT,047454000,1,16,036,09,0,0X00,0,0X0F
047454000,01,$GVGNSSAT,047454000,1,20,122,07,0,0X00,0,0X0F
047454000,00,$GVGNSSAT,047454000,1,29,334,02,0,0X00,0,0X0F
#$GPRMC,131055.000,A,4618.9464,N,00656.1324,E,0.00,,030410,,,A*70
047455000,0,$GVGNSTIM,047455000,2010,03,03,13,10,55,0,0,0,0X00000003
047455000,0,$GVGNSPOS,047455000,46.3157733,6.9355400,0,0,0.00,0,0,0,0,0,0,0,0,0,0,0,0,0,3,0X00000001,0,0,0X000C0013
#$GPRMC,131056.000,A,4618.9464,N,00656.1324,E,0.00,,030410,,,A*73
047456000,0,$GVGNSTIM,047456000,2010,03,03,13,10,56,0,0,0,0X00000003
047456000,0,$GVGNSPOS,047456000,46.3157733,6.9355400,0,0,0.00,0,0,0,0,0,0,0,0,0,0,0,0,0,3,0X00000001,0,0,0X000C0013
#$GPRMC,131057.000,A,4618.9464,N,00656.1324,E,0.00,,030410,,,A*72
047457000,0,$GVGNSTIM,047457000,2010,03,03,13,10,57,0,0,0,0X00000003
047457000,0,$GVGNSPOS,047457000,46.3157733,6.9355400,0,0,0.00,0,0,0,0,0,0,0,0,0,0,0,0,0,3,0X00000001,0,0,0X000C0013
#$GPGGA,131058.000,4618.9464,N,00656.1324,E,1,07,1.0,398.0,M,48.1,M,,0000*5E
#$GPGSV,3,1,11,07,63,152,15,13,56,053,42,10,44,302,38,04,43,214,37*71
#$GPGSV,3,2,11,02,42,284,39,08,32,188,35,23,30,066,39,05,18,302,40*77
#$GPGSV,3,3,11,16,09,036,,20,07,122,,29,02,334,*4B
#$GPRMC,131058.000,A,4618.9464,N,00656.1324,E,0.00,,030410,,,A*7D
047458000,0,$GVGNSTIM,047458000,2010,03,03,13,10,58,0,0,0,0X00000003
047458000,0,$GVGNSPOS,047458000,46.3157733,6.9355400,398.0,0,0.00,0,0,0,1.0,0,07,0,0,0,0,0,0,0,3,0X00000001,0,0,0X000C0517
047458000,10,$GVGNSSAT,047458000,1,07,152,63,15,0X00,0,0X1F
047458000,09,$GVGNSSAT,047458000,1,13,053,56,42,0X00,0,0X1F
047458000,08,$GVGNSSAT,047458000,1,10,302,44,38,0X00,0,0X1F
047458000,07,$GVGNSSAT,047458000,1,04,214,43,37,0X00,0,0X1F
047458000,06,$GVGNSSAT,047458000,1,02,284,42,39,0X00,0,0X1F
047458000,05,$GVGNSSAT,047458000,1,08,188,32,35,0X00,0,0X1F
047458000,04,$GVGNSSAT,047458000,1,23,066,30,39,0X00,0,0X1F
047458000,03,$GVGNSSAT,047458000,1,05,302,18,40,0X00,0,0X1F
047458000,02,$GVGNSSAT,047458000,1,16,036,09,0,0X00,0,0X0F
047458000,01,$GVGNSSAT,047458000,1,20,122,07,0,0X00,0,0X0F
047458000,00,$GVGNSSAT,047458000,1,29,334,02,0,0X00,0,0X0F
#$GPRMC,131059.000,A,4618.9464,N,00656.1324,E,0.00,,030410,,,A*7C
047459000,0,$GVGNSTIM,047459000,2010,03,03,13,10,59,0,0,0,0X00000003
047459000,0,$GVGNSPOS,047459000,46.3157733,6.9355400,0,0,0.00,0,0,0,0,0,0,0,0,0,0,0,0,0,3,0X00000001,0,0,0X000C0013
#$GPRMC,131100.000,A,4618.9464,N,00656.1324,E,0.00,,030410,,,A*71
047460000,0,$GVGNSTIM,047460000,2010,03,03,13,11,00,0,0,0,0X00000003
047460000,0,$GVGNSPOS,047460000,46.3157733,6.9355400,0,0,0.00,0,0,0,0,0,0,0,0,0,0,0,0,0,3,0X00000001,0,0,0X000C0013
#$GPRMC,131101.000,A,4618.9464,N,00656.1324,E,0.00,,030410,,,A*70
047461000,0,$GVGNSTIM,047461000,2010,03,03,13,11,01,0,0,0,0X00000003
047461000,0,$GVGNSPOS,047461000,46.3157733,6.9355400,0,0,0.00,0,0,0,0,0,0,0,0,0,0,0,0,0,3,0X00000001,0,0,0X000C0013
#$GPGGA,131102.000,4618.9464,N,00656.1324,E,1,08,1.0,398.0,M,48.1,M,,0000*5F
#$GPGSV,3,1,11,07,63,152,25,13,56,053,42,10,44,302,38,04,43,214,38*7D
#$GPGSV,3,2,11,02,42,284,39,08,32,188,35,23,30,066,39,05,18,302,40*77
#$GPGSV,3,3,11,16,09,036,,20,07,122,,29,02,334,21*48
#$GPRMC,131102.000,A,4618.9464,N,00656.1324,E,0.00,,030410,,,A*73
047462000,0,$GVGNSTIM,047462000,2010,03,03,13,11,02,0,0,0,0X00000003
047462000,0,$GVGNSPOS,047462000,46.3157733,6.9355400,398.0,0,0.00,0,0,0,1.0,0,08,0,0,0,0,0,0,0,3,0X00000001,0,0,0X000C0517
047462000,10,$GVGNSSAT,047462000,1,07,152,63,25,0X00,0,0X1F
047462000,09,$GVGNSSAT,047462000,1,13,053,56,42,0X00,0,0X1F
047462000,08,$GVGNSSAT,047462000,1,10,302,44,38,0X00,0,0X1F
047462000,07,$GVGNSSAT,047462000,1,04,214,43,38,0X00,0,0X1F
047462000,06,$GVGNSSAT,047462000,1,02,284,42,39,0X00,0,0X1F
047462000,05,$GVGNSSAT,047462000,1,08,188,32,35,0X00,0,0X1F
047462000,04,$GVGNSSAT,047462000,1,23,066,30,39,0X00,0,0X1F
047462000,03,$GVGNSSAT,047462000,1,05,302,18,40,0X00,0,0X1F
047462000,02,$GVGNSSAT,047462000,1,16,036,09,0,0X00,0,0X0F
047462000,01,$GVGNSSAT,047462000,1,20,122,07,0,0X00,0,0X0F
047462000,00,$GVGNSSAT,047462000,1,29,334,02,21,0X00,0,0X1F
#$GPRMC,131103.000,A,4618.9464,N,00656.1324,E,0.00,,030410,,,A*72
047463000,0,$GVGNSTIM,047463000,2010,03,03,13,11,03,0,0,0,0X00000003
047463000,0,$GVGNSPOS,047463000,46.3157733,6.9355400,0,0,0.00,0,0,0,0,0,0,0,0,0,0,0,0,0,3,0X00000001,0,0,0X000C0013
#$GPRMC,131104.000,A,4618.9464,N,00656.1324,E,0.00,,030410,,,A*75
047464000,0,$GVGNSTIM,047464000,2010,03,03,13,11,04,0,0,0,0X00000003
047464000,0,$GVGNSPOS,047464000,46.3157733,6.9355400,0,0,0.00,0,0,0,0,0,0,0,0,0,0,0,0,0,3,0X00000001,0,0,0X000C0013
#$GPRMC,131105.000,A,4618.9464,N,00656.1324,E,0.00,,030410,,,A*74
047465000,0,$GVGNSTIM,047465000,2010,03,03,13,11,05,0,0,0,0X00000003
047465000,0,$GVGNSPOS,047465000,46.3157733,6.9355400,0,0,0.00,0,0,0,0,0,0,0,0,0,0,0,0,0,3,0X00000001,0,0,0X000C0013
#$GPGGA,131106.000,4618.9464,N,00656.1324,E,1,09,0.9,398.0,M,48.1,M,,0000*52
#$GPGSV,3,1,11,07,63,151,22,13,56,053,43,10,44,302,39,04,43,214,38*79
#$GPGSV,3,2,11,02,42,284,40,08,32,188,36,23,30,066,38,05,18,302,40*7B
#$GPGSV,3,3,11,16,09,036,,20,07,122,25,29,02,334,21*4F
#$GPRMC,131106.000,A,4618.9464,N,00656.1324,E,0.00,,030410,,,A*77
047466000,0,$GVGNSTIM,047466000,2010,03,03,13,11,06,0,0,0,0X00000003
047466000,0,$GVGNSPOS,047466000,46.3157733,6.9355400,398.0,0,0.00,0,0,0,0.9,0,09,0,0,0,0,0,0,0,3,0X00000001,0,0,0X000C0517
047466000,10,$GVGNSSAT,047466000,1,07,151,63,22,0X00,0,0X1F
047466000,09,$GVGNSSAT,047466000,1,13,053,56,43,0X00,0,0X1F
047466000,08,$GVGNSSAT,047466000,1,10,302,44,39,0X00,0,0X1F
047466000,07,$GVGNSSAT,047466000,1,04,214,43,38,0X00,0,0X1F
047466000,06,$GVGNSSAT,047466000,1,02,284,42,40,0X00,0,0X1F
047466000,05,$GVGNSSAT,047466000,1,08,188,32,36,0X00,0,0X1F
047466000,04,$GVGNSSAT,047466000,1,23,066,30,38,0X00,0,0X1F
047466000,03,$GVGNSSAT,047466000,1,05,302,18,40,0X00,0,0X1F
047466000,02,$GVGNSSAT,047466000,1,16,036,09,0,0X00,0,0X0F
047466000,01,$GVGNSSAT,047466000,1,20,122,07,25,0X00,0,0X1F
047466000,00,$GVGNSSAT,047466000,1,29,334,02,21,0X00,0,0X1F
#$GPRMC,131107.000,A,4618.9464,N,00656.1324,E,0.00,,030410,,,A*76
047467000,0,$GVGNSTIM,047467000,2010,03,03,13,11,07,0,0,0,0X00000003
047467000,0,$GVGNSPOS,047467000,46.3157733,6.9355400,0,0,0.00,0,0,0,0,0,0,0,0,0,0,0,0,0,3,0X00000001,0,0,0X000C0013
#$GPRMC,131108.000,A,4618.9464,N,00656.1324,E,0.00,,030410,,,A*79
047468000,0,$GVGNSTIM,047468000,2010,03,03,13,11,08,0,0,0,0X00000003
047468000,0,$GVGNSPOS,047468000,46.3157733,6.9355400,0,0,0.00,0,0,0,0,0,0,0,0,0,0,0,0,0,3,0X00000001,0,0,0X000C0013
#$GPRMC,131109.000,A,4618.9464,N,00656.1324,E,0.00,,030410,,,A*78
047469000,0,$GVGNSTIM,047469000,2010,03,03,13,11,09,0,0,0,0X00000003
047469000,0,$GVGNSPOS,047469000,46.3157733,6.9355400,0,0,0.00,0,0,0,0,0,0,0,0,0,0,0,0,0,3,0X00000001,0,0,0X000C0013
#$GPGGA,131110.000,4618.9464,N,00656.1324,E,1,09,0.9,398.0,M,48.1,M,,0000*55
#$GPGSV,3,1,11,07,63,151,25,13,56,053,43,10,44,302,39,04,43,214,38*7E
#$GPGSV,3,2,11,02,42,284,40,08,32,188,37,23,30,066,38,05,18,302,39*74
#$GPGSV,3,3,11,16,09,036,,20,07,122,26,29,02,334,*4F
#$GPRMC,131110.000,A,4618.9464,N,00656.1324,E,0.00,,030410,,,A*70
047470000,0,$GVGNSTIM,047470000,2010,03,03,13,11,10,0,0,0,0X00000003
047470000,0,$GVGNSPOS,047470000,46.3157733,6.9355400,398.0,0,0.00,0,0,0,0.9,0,09,0,0,0,0,0,0,0,3,0X00000001,0,0,0X000C0517
047470000,10,$GVGNSSAT,047470000,1,07,151,63,25,0X00,0,0X1F
047470000,09,$GVGNSSAT,047470000,1,13,053,56,43,0X00,0,0X1F
047470000,08,$GVGNSSAT,047470000,1,10,302,44,39,0X00,0,0X1F
047470000,07,$GVGNSSAT,047470000,1,04,214,43,38,0X00,0,0X1F
047470000,06,$GVGNSSAT,047470000,1,02,284,42,40,0X00,0,0X1F
047470000,05,$GVGNSSAT,047470000,1,08,188,32,37,0X00,0,0X1F
047470000,04,$GVGNSSAT,047470000,1,23,066,30,38,0X00,0,0X1F
047470000,03,$GVGNSSAT,047470000,1,05,302,18,39,0X00,0,0X1F
047470000,02,$GVGNSSAT,047470000,1,16,036,09,0,0X00,0,0X0F
047470000,01,$GVGNSSAT,047470000,1,20,122,07,26,0X00,0,0X1F
047470000,00,$GVGNSSAT,047470000,1,29,334,02,0,0X00,0,0X0F
#$GPRMC,131111.000,A,4618.9464,N,00656.1324,E,0.00,,030410,,,A*71
047471000,0,$GVGNSTIM,047471000,2010,03,03,13,11,11,0,0,0,0X00000003
047471000,0,$GVGNSPOS,047471000,46.3157733,6.9355400,0,0,0.00,0,0,0,0,0,0,0,0,0,0,0,0,0,3,0X00000001,0,0,0X000C0013
#$GPRMC,131112.000,A,4618.9464,N,00656.1324,E,0.00,,030410,,,A*72
047472000,0,$GVGNSTIM,047472000,2010,03,03,13,11,12,0,0,0,0X00000003
047472000,0,$GVGNSPOS,047472000,46.3157733,6.9355400,0,0,0.00,0,0,0,0,0,0,0,0,0,0,0,0,0,3,0X00000001,0,0,0X000C0013
#$GPRMC,131113.000,A,4618.9464,N,00656.1324,E,0.00,,030410,,,A*73
047473000,0,$GVGNSTIM,047473000,2010,03,03,13,11,13,0,0,0,0X00000003
047473000,0,$GVGNSPOS,047473000,46.3157733,6.9355400,0,0,0.00,0,0,0,0,0,0,0,0,0,0,0,0,0,3,0X00000001,0,0,0X000C0013
#$GPGGA,131114.000,4618.9464,N,00656.1324,E,1,09,0.9,398.0,M,48.1,M,,0000*51
#$GPGSV,3,1,11,07,63,151,23,13,56,053,42,10,44,302,39,04,43,214,37*76
#$GPGSV,3,2,11,02,42,284,40,08,32,188,36,23,30,066,37,05,18,302,39*7A
#$GPGSV,3,3,11,16,09,036,,20,07,122,25,29,02,334,*4C
#$GPRMC,131114.000,A,4618.9464,N,00656.1324,E,0.00,,030410,,,A*74
047474000,0,$GVGNSTIM,047474000,2010,03,03,13,11,14,0,0,0,0X00000003
047474000,0,$GVGNSPOS,047474000,46.3157733,6.9355400,398.0,0,0.00,0,0,0,0.9,0,09,0,0,0,0,0,0,0,3,0X00000001,0,0,0X000C0517
047474000,10,$GVGNSSAT,047474000,1,07,151,63,23,0X00,0,0X1F
047474000,09,$GVGNSSAT,047474000,1,13,053,56,42,0X00,0,0X1F
047474000,08,$GVGNSSAT,047474000,1,10,302,44,39,0X00,0,0X1F
047474000,07,$GVGNSSAT,047474000,1,04,214,43,37,0X00,0,0X1F
047474000,06,$GVGNSSAT,047474000,1,02,284,42,40,0X00,0,0X1F
047474000,05,$GVGNSSAT,047474000,1,08,188,32,36,0X00,0,0X1F
047474000,04,$GVGNSSAT,047474000,1,23,066,30,37,0X00,0,0X1F
047474000,03,$GVGNSSAT,047474000,1,05,302,18,39,0X00,0,0X1F
047474000,02,$GVGNSSAT,047474000,1,16,036,09,0,0X00,0,0X0F
047474000,01,$GVGNSSAT,047474000,1,20,122,07,25,0X00,0,0X1F
047474000,00,$GVGNSSAT,047474000,1,29,334,02,0,0X00,0,0X0F
#$GPRMC,131115.000,A,4618.9464,N,00656.1324,E,0.00,,030410,,,A*75
047475000,0,$GVGNSTIM,047475000,2010,03,03,13,11,15,0,0,0,0X00000003
047475000,0,$GVGNSPOS,047475000,46.3157733,6.9355400,0,0,0.00,0,0,0,0,0,0,0,0,0,0,0,0,0,3,0X00000001,0,0,0X000C0013
#$GPRMC,131116.000,A,4618.9416,N,00656.1359,E,3.16,257.17,030410,,,A*65
047476000,0,$GVGNSTIM,047476000,2010,03,03,13,11,16,0,0,0,0X00000003
047476000,0,$GVGNSPOS,047476000,46.3156933,6.9355983,0,0,1.63,0,257.17,0,0,0,0,0,0,0,0,0,0,0,3,0X00000001,0,0,0X000C0053
#$GPRMC,131117.000,A,4618.9411,N,00656.1345,E,4.56,232.03,030410,,,A*6B
047477000,0,$GVGNSTIM,047477000,2010,03,03,13,11,17,0,0,0,0X00000003
047477000,0,$GVGNSPOS,047477000,46.3156850,6.9355750,0,0,2.35,0,232.03,0,0,0,0,0,0,0,0,0,0,0,3,0X00000001,0,0,0X000C0053
#$GPGGA,131118.000,4618.9402,N,00656.1335,E,1,09,0.9,379.4,M,48.1,M,,0000*56
#$GPGSV,3,1,11,07,63,151,37,13,56,053,33,10,44,302,40,04,43,214,38*74
#$GPGSV,3,2,11,02,42,283,40,08,32,188,37,23,30,066,28,05,18,302,38*73
#$GPGSV,3,3,11,16,09,036,,20,07,123,25,29,02,334,*4D
#$GPRMC,131118.000,A,4618.9402,N,00656.1335,E,4.01,203.98,030410,,,A*63
047478000,0,$GVGNSTIM,047478000,2010,03,03,13,11,18,0,0,0,0X00000003
047478000,0,$GVGNSPOS,047478000,46.3156700,6.9355583,379.4,0,2.06,0,203.98,0,0.9,0,09,0,0,0,0,0,0,0,3,0X00000001,0,0,0X000C0557
047478000,10,$GVGNSSAT,047478000,1,07,151,63,37,0X00,0,0X1F
047478000,09,$GVGNSSAT,047478000,1,13,053,56,33,0X00,0,0X1F
047478000,08,$GVGNSSAT,047478000,1,10,302,44,40,0X00,0,0X1F
047478000,07,$GVGNSSAT,047478000,1,04,214,43,38,0X00,0,0X1F
047478000,06,$GVGNSSAT,047478000,1,02,283,42,40,0X00,0,0X1F
047478000,05,$GVGNSSAT,047478000,1,08,188,32,37,0X00,0,0X1F
047478000,04,$GVGNSSAT,047478000,1,23,066,30,28,0X00,0,0X1F
047478000,03,$GVGNSSAT,047478000,1,05,302,18,38,0X00,0,0X1F
047478000,02,$GVGNSSAT,047478000,1,16,036,09,0,0X00,0,0X0F
047478000,01,$GVGNSSAT,047478000,1,20,123,07,25,0X00,0,0X1F
047478000,00,$GVGNSSAT,047478000,1,29,334,02,0,0X00,0,0X0F
#$GPRMC,131119.000,A,4618.9391,N,00656.1332,E,4.38,176.96,030410,,,A*6D
047479000,0,$GVGNSTIM,047479000,2010,03,03,13,11,19,0,0,0,0X00000003
047479000,0,$GVGNSPOS,047479000,46.3156517,6.9355533,0,0,2.25,0,176.96,0,0,0,0,0,0,0,0,0,0,0,3,0X00000001,0,0,0X000C0053
#$GPRMC,131120.000,A,4618.9378,N,00656.1341,E,5.67,136.98,030410,,,A*65
047480000,0,$GVGNSTIM,047480000,2010,03,03,13,11,20,0,0,0,0X00000003
047480000,0,$GVGNSPOS,047480000,46.3156300,6.9355683,0,0,2.92,0,136.98,0,0,0,0,0,0,0,0,0,0,0,3,0X00000001,0,0,0X000C0053
#$GPRMC,131121.000,A,4618.9371,N,00656.1364,E,6.55,97.22,030410,,,A*53
047481000,0,$GVGNSTIM,047481000,2010,03,03,13,11,21,0,0,0,0X00000003
047481000,0,$GVGNSPOS,047481000,46.3156183,6.9356067,0,0,3.37,0,97.22,0,0,0,0,0,0,0,0,0,0,0,3,0X00000001,0,0,0X000C0053
#$GPGGA,131122.000,4618.9373,N,00656.1398,E,1,09,0.9,382.1,M,48.1,M,,0000*58
#$GPGSV,3,1,11,07,63,151,37,13,56,053,32,10,44,302,30,04,43,214,28*73
#$GPGSV,3,2,11,02,42,283,30,08,32,188,27,23,30,066,37,05,18,302,32*71
#$GPGSV,3,3,11,16,09,036,,20,07,123,21,29,02,334,*49
#$GPRMC,131122.000,A,4618.9373,N,00656.1398,E,9.01,77.53,030410,,,A*57
047482000,0,$GVGNSTIM,047482000,2010,03,03,13,11,22,0,0,0,0X00000003
047482000,0,$GVGNSPOS,047482000,46.3156217,6.9356633,382.1,0,4.64,0,77.53,0,0.9,0,09,0,0,0,0,0,0,0,3,0X00000001,0,0,0X000C0557
047482000,10,$GVGNSSAT,047482000,1,07,151,63,37,0X00,0,0X1F
047482000,09,$GVGNSSAT,047482000,1,13,053,56,32,0X00,0,0X1F
047482000,08,$GVGNSSAT,047482000,1,10,302,44,30,0X00,0,0X1F
047482000,07,$GVGNSSAT,047482000,1,04,214,43,28,0X00,0,0X1F
047482000,06,$GVGNSSAT,047482000,1,02,283,42,30,0X00,0,0X1F
047482000,05,$GVGNSSAT,047482000,1,08,188,32,27,0X00,0,0X1F
047482000,04,$GVGNSSAT,047482000,1,23,066,30,37,0X00,0,0X1F
047482000,03,$GVGNSSAT,047482000,1,05,302,18,32,0X00,0,0X1F
047482000,02,$GVGNSSAT,047482000,1,16,036,09,0,0X00,0,0X0F
047482000,01,$GVGNSSAT,047482000,1,20,123,07,21,0X00,0,0X1F
047482000,00,$GVGNSSAT,047482000,1,29,334,02,0,0X00,0,0X0F
#$GPRMC,131123.000,A,4618.9379,N,00656.1440,E,10.99,77.40,030410,,,A*65
047483000,0,$GVGNSTIM,047483000,2010,03,03,13,11,23,0,0,0,0X00000003
047483000,0,$GVGNSPOS,047483000,46.3156317,6.9357333,0,0,5.65,0,77.40,0,0,0,0,0,0,0,0,0,0,0,3,0X00000001,0,0,0X000C0053
#$GPRMC,131124.000,A,4618.9385,N,00656.1487,E,10.82,80.27,030410,,,A*69
047484000,0,$GVGNSTIM,047484000,2010,03,03,13,11,24,0,0,0,0X00000003
047484000,0,$GVGNSPOS,047484000,46.3156417,6.9358117,0,0,5.57,0,80.27,0,0,0,0,0,0,0,0,0,0,0,3,0X00000001,0,0,0X000C0053
#$GPRMC,131125.000,A,4618.9389,N,00656.1527,E,8.83,77.94,030410,,,A*57
047485000,0,$GVGNSTIM,047485000,2010,03,03,13,11,25,0,0,0,0X00000003
047485000,0,$GVGNSPOS,047485000,46.3156483,6.9358783,0,0,4.54,0,77.94,0,0,0,0,0,0,0,0,0,0,0,3,0X00000001,0,0,0X000C0053
#$GPGGA,131126.000,4618.9394,N,00656.1556,E,1,09,0.9,382.2,M,48.1,M,,0000*52
#$GPGSV,3,1,11,07,63,151,38,13,56,053,26,10,44,302,22,04,43,214,27*75
#$GPGSV,3,2,11,02,42,283,29,08,32,188,40,23,30,066,39,05,18,302,31*75
#$GPGSV,3,3,11,16,09,036,,20,07,123,25,29,02,334,*4D
#$GPRMC,131126.000,A,4618.9394,N,00656.1556,E,5.99,72.33,030410,,,A*50
047486000,0,$GVGNSTIM,047486000,2010,03,03,13,11,26,0,0,0,0X00000003
047486000,0,$GVGNSPOS,047486000,46.3156567,6.9359267,382.2,0,3.08,0,72.33,0,0.9,0,09,0,0,0,0,0,0,0,3,0X00000001,0,0,0X000C0557
047486000,10,$GVGNSSAT,047486000,1,07,151,63,38,0X00,0,0X1F
047486000,09,$GVGNSSAT,047486000,1,13,053,56,26,0X00,0,0X1F
047486000,08,$GVGNSSAT,047486000,1,10,302,44,22,0X00,0,0X1F
047486000,07,$GVGNSSAT,047486000,1,04,214,43,27,0X00,0,0X1F
047486000,06,$GVGNSSAT,047486000,1,02,283,42,29,0X00,0,0X1F
047486000,05,$GVGNSSAT,047486000,1,08,188,32,40,0X00,0,0X1F
047486000,04,$GVGNSSAT,047486000,1,23,066,30,39,0X00,0,0X1F
047486000,03,$GVGNSSAT,047486000,1,05,302,18,31,0X00,0,0X1F
047486000,02,$GVGNSSAT,047486000,1,16,036,09,0,0X00,0,0X0F
047486000,01,$GVGNSSAT,047486000,1,20,123,07,25,0X00,0,0X1F
047486000,00,$GVGNSSAT,047486000,1,29,334,02,0,0X00,0,0X0F
#$GPRMC,131127.000,A,4618.9396,N,00656.1569,E,1.54,85.66,030410,,,A*52
047487000,0,$GVGNSTIM,047487000,2010,03,03,13,11,27,0,0,0,0X00000003
047487000,0,$GVGNSPOS,047487000,46.3156600,6.9359483,0,0,0.79,0,85.66,0,0,0,0,0,0,0,0,0,0,0,3,0X00000001,0,0,0X000C0053
#$GPRMC,131128.000,A,4618.9396,N,00656.1573,E,0.28,102.89,030410,,,A*63
047488000,0,$GVGNSTIM,047488000,2010,03,03,13,11,28,0,0,0,0X00000003
047488000,0,$GVGNSPOS,047488000,46.3156600,6.9359550,0,0,0.14,0,102.89,0,0,0,0,0,0,0,0,0,0,0,3,0X00000001,0,0,0X000C0053
#$GPRMC,131129.000,A,4618.9396,N,00656.1574,E,0.00,,030410,,,A*73
047489000,0,$GVGNSTIM,047489000,2010,03,03,13,11,29,0,0,0,0X00000003
047489000,0,$GVGNSPOS,047489000,46.3156600,6.9359567,0,0,0.00,0,0,0,0,0,0,0,0,0,0,0,0,0,3,0X00000001,0,0,0X000C0013
#$GPGGA,131130.000,4618.9396,N,00656.1574,E,1,09,0.9,382.7,M,48.1,M,,0000*52
#$GPGSV,3,1,11,07,63,151,39,13,56,053,19,10,44,302,26,04,43,214,26*7D
#$GPGSV,3,2,11,02,42,283,24,08,32,188,41,23,30,066,40,05,18,302,36*70
#$GPGSV,3,3,11,16,09,036,,20,07,123,25,29,02,334,*4D
#$GPRMC,131130.000,A,4618.9396,N,00656.1574,E,0.00,,030410,,,A*7B
047490000,0,$GVGNSTIM,047490000,2010,03,03,13,11,30,0,0,0,0X00000003
047490000,0,$GVGNSPOS,047490000,46.3156600,6.9359567,382.7,0,0.00,0,0,0,0.9,0,09,0,0,0,0,0,0,0,3,0X00000001,0,0,0X000C0517
047490000,10,$GVGNSSAT,047490000,1,07,151,63,39,0X00,0,0X1F
047490000,09,$GVGNSSAT,047490000,1,13,053,56,19,0X00,0,0X1F
047490000,08,$GVGNSSAT,047490000,1,10,302,44,26,0X00,0,0X1F
047490000,07,$GVGNSSAT,047490000,1,04,214,43,26,0X00,0,0X1F
047490000,06,$GVGNSSAT,047490000,1,02,283,42,24,0X00,0,0X1F
047490000,05,$GVGNSSAT,047490000,1,08,188,32,41,0X00,0,0X1F
047490000,04,$GVGNSSAT,047490000,1,23,066,30,40,0X00,0,0X1F
047490000,03,$GVGNSSAT,047490000,1,05,302,18,36,0X00,0,0X1F
047490000,02,$GVGNSSAT,047490000,1,16,036,09,0,0X00,0,0X0F
047490000,01,$GVGNSSAT,047490000,1,20,123,07,25,0X00,0,0X1F
047490000,00,$GVGNSSAT,047490000,1,29,334,02,0,0X00,0,0X0F
#$GPRMC,131131.000,A,4618.9396,N,00656.1574,E,0.00,,030410,,,A*7A
047491000,0,$GVGNSTIM,047491000,2010,03,03,13,11,31,0,0,0,0X00000003
047491000,0,$GVGNSPOS,047491000,46.3156600,6.9359567,0,0,0.00,0,0,0,0,0,0,0,0,0,0,0,0,0,3,0X00000001,0,0,0X000C0013
#$GPRMC,131132.000,A,4618.9396,N,00656.1574,E,0.00,,030410,,,A*79
047492000,0,$GVGNSTIM,047492000,2010,03,03,13,11,32,0,0,0,0X00000003
047492000,0,$GVGNSPOS,047492000,46.3156600,6.9359567,0,0,0.00,0,0,0,0,0,0,0,0,0,0,0,0,0,3,0X00000001,0,0,0X000C0013
#$GPRMC,131133.000,A,4618.9396,N,00656.1574,E,0.00,,030410,,,A*78
047493000,0,$GVGNSTIM,047493000,2010,03,03,13,11,33,0,0,0,0X00000003
047493000,0,$GVGNSPOS,047493000,46.3156600,6.9359567,0,0,0.00,0,0,0,0,0,0,0,0,0,0,0,0,0,3,0X00000001,0,0,0X000C0013
#$GPGGA,131134.000,4618.9396,N,00656.1574,E,1,09,0.9,382.7,M,48.1,M,,0000*56
#$GPGSV,3,1,11,07,63,151,39,13,56,053,19,10,44,302,28,04,43,214,27*72
#$GPGSV,3,2,11,02,42,283,26,08,33,188,41,23,29,066,41,05,18,302,37*7B
#$GPGSV,3,3,11,16,09,036,,20,07,123,25,29,02,334,*4D
#$GPRMC,131134.000,A,4618.9396,N,00656.1574,E,0.00,,030410,,,A*7F
047494000,0,$GVGNSTIM,047494000,2010,03,03,13,11,34,0,0,0,0X00000003
047494000,0,$GVGNSPOS,047494000,46.3156600,6.9359567,382.7,0,0.00,0,0,0,0.9,0,09,0,0,0,0,0,0,0,3,0X00000001,0,0,0X000C0517
047494000,10,$GVGNSSAT,047494000,1,07,151,63,39,0X00,0,0X1F
047494000,09,$GVGNSSAT,047494000,1,13,053,56,19,0X00,0,0X1F
047494000,08,$GVGNSSAT,047494000,1,10,302,44,28,0X00,0,0X1F
047494000,07,$GVGNSSAT,047494000,1,04,214,43,27,0X00,0,0X1F
047494000,06,$GVGNSSAT,047494000,1,02,283,42,26,0X00,0,0X1F
047494000,05,$GVGNSSAT,047494000,1,08,188,33,41,0X00,0,0X1F
047494000,04,$GVGNSSAT,047494000,1,23,066,29,41,0X00,0,0X1F
047494000,03,$GVGNSSAT,047494000,1,05,302,18,37,0X00,0,0X1F
047494000,02,$GVGNSSAT,047494000,1,16,036,09,0,0X00,0,0X0F
047494000,01,$GVGNSSAT,047494000,1,20,123,07,25,0X00,0,0X1F
047494000,00,$GVGNSSAT,047494000,1,29,334,02,0,0X00,0,0X0F
#$GPRMC,131135.000,A,4618.9396,N,00656.1574,E,0.00,,030410,,,A*7E
047495000,0,$GVGNSTIM,047495000,2010,03,03,13,11,35,0,0,0,0X00000003
047495000,0,$GVGNSPOS,047495000,46.3156600,6.9359567,0,0,0.00,0,0,0,0,0,0,0,0,0,0,0,0,0,3,0X00000001,0,0,0X000C0013
#$GPRMC,131136.000,A,4618.9396,N,00656.1574,E,0.00,,030410,,,A*7D
047496000,0,$GVGNSTIM,047496000,2010,03,03,13,11,36,0,0,0,0X00000003
047496000,0,$GVGNSPOS,047496000,46.3156600,6.9359567,0,0,0.00,0,0,0,0,0,0,0,0,0,0,0,0,0,3,0X00000001,0,0,0X000C0013
#$GPRMC,131137.000,A,4618.9396,N,00656.1574,E,0.00,,030410,,,A*7C
047497000,0,$GVGNSTIM,047497000,2010,03,03,13,11,37,0,0,0,0X00000003
047497000,0,$GVGNSPOS,047497000,46.3156600,6.9359567,0,0,0.00,0,0,0,0,0,0,0,0,0,0,0,0,0,3,0X00000001,0,0,0X000C0013
#$GPGGA,131138.000,4618.9396,N,00656.1574,E,1,09,0.9,382.7,M,48.1,M,,0000*5A
#$GPGSV,3,1,11,07,63,151,40,13,56,053,22,10,44,302,28,04,43,214,27*74
#$GPGSV,3,2,11,02,42,283,26,08,33,188,41,23,29,066,41,05,18,302,37*7B
#$GPGSV,3,3,11,16,09,036,,20,07,123,26,29,02,334,*4E
#$GPRMC,131138.000,A,4618.9396,N,00656.1574,E,0.00,,030410,,,A*73
047498000,0,$GVGNSTIM,047498000,2010,03,03,13,11,38,0,0,0,0X00000003
047498000,0,$GVGNSPOS,047498000,46.3156600,6.9359567,382.7,0,0.00,0,0,0,0.9,0,09,0,0,0,0,0,0,0,3,0X00000001,0,0,0X000C0517
047498000,10,$GVGNSSAT,047498000,1,07,151,63,40,0X00,0,0X1F
047498000,09,$GVGNSSAT,047498000,1,13,053,56,22,0X00,0,0X1F
047498000,08,$GVGNSSAT,047498000,1,10,302,44,28,0X00,0,0X1F
047498000,07,$GVGNSSAT,047498000,1,04,214,43,27,0X00,0,0X1F
047498000,06,$GVGNSSAT,047498000,1,02,283,42,26,0X00,0,0X1F
047498000,05,$GVGNSSAT,047498000,1,08,188,33,41,0X00,0,0X1F
047498000,04,$GVGNSSAT,047498000,1,23,066,29,41,0X00,0,0X1F
047498000,03,$GVGNSSAT,047498000,1,05,302,18,37,0X00,0,0X1F
047498000,02,$GVGNSSAT,047498000,1,16,036,09,0,0X00,0,0X0F
047498000,01,$GVGNSSAT,047498000,1,20,123,07,26,0X00,0,0X1F
047498000,00,$GVGNSSAT,047498000,1,29,334,02,0,0X00,0,0X0F
#$GPRMC,131139.000,A,4618.9396,N,00656.1574,E,0.00,,030410,,,A*72
047499000,0,$GVGNSTIM,047499000,2010,03,03,13,11,39,0,0,0,0X00000003
047499000,0,$GVGNSPOS,047499000,46.3156600,6.9359567,0,0,0.00,0,0,0,0,0,0,0,0,0,0,0,0,0,3,0X00000001,0,0,0X000C0013
#$GPRMC,131140.000,A,4618.9396,N,00656.1574,E,0.00,,030410,,,A*7C
047500000,0,$GVGNSTIM,047500000,2010,03,03,13,11,40,0,0,0,0X00000003
047500000,0,$GVGNSPOS,047500000,46.3156600,6.9359567,0,0,0.00,0,0,0,0,0,0,0,0,0,0,0,0,0,3,0X00000001,0,0,0X000C0013
#$GPRMC,131141.000,A,4618.9396,N,00656.1574,E,0.00,,030410,,,A*7D
047501000,0,$GVGNSTIM,047501000,2010,03,03,13,11,41,0,0,0,0X00000003
047501000,0,$GVGNSPOS,047501000,46.3156600,6.9359567,0,0,0.00,0,0,0,0,0,0,0,0,0,0,0,0,0,3,0X00000001,0,0,0X000C0013
#$GPGGA,131142.000,4618.9396,N,00656.1574,E,1,09,0.9,382.7,M,48.1,M,,0000*57
#$GPGSV,3,1,11,07,63,151,40,13,56,053,12,10,44,302,27,04,43,214,28*77
#$GPGSV,3,2,11,02,42,283,27,08,33,188,40,23,29,066,41,05,18,302,37*7B
#$GPGSV,3,3,11,16,09,036,,20,07,123,26,29,02,334,20*4C
#$GPRMC,131142.000,A,4618.9396,N,00656.1574,E,0.00,,030410,,,A*7E
047502000,0,$GVGNSTIM,047502000,2010,03,03,13,11,42,0,0,0,0X00000003
047502000,0,$GVGNSPOS,047502000,46.3156600,6.9359567,382.7,0,0.00,0,0,0,0.9,0,09,0,0,0,0,0,0,0,3,0X00000001,0,0,0X000C0517
047502000,10,$GVGNSSAT,047502000,1,07,151,63,40,0X00,0,0X1F
047502000,09,$GVGNSSAT,047502000,1,13,053,56,12,0X00,0,0X1F
047502000,08,$GVGNSSAT,047502000,1,10,302,44,27,0X00,0,0X1F
047502000,07,$GVGNSSAT,047502000,1,04,214,43,28,0X00,0,0X1F
047502000,06,$GVGNSSAT,047502000,1,02,283,42,27,0X00,0,0X1F
047502000,05,$GVGNSSAT,047502000,1,08,188,33,40,0X00,0,0X1F
047502000,04,$GVGNSSAT,047502000,1,23,066,29,41,0X00,0,0X1F
047502000,03,$GVGNSSAT,047502000,1,05,302,18,37,0X00,0,0X1F
047502000,02,$GVGNSSAT,047502000,1,16,036,09,0,0X00,0,0X0F
047502000,01,$GVGNSSAT,047502000,1,20,123,07,26,0X00,0,0X1F
047502000,00,$GVGNSSAT,047502000,1,29,334,02,20,0X00,0,0X1F
#$GPRMC,131143.000,A,4618.9396,N,00656.1574,E,0.00,,030410,,,A*7F
047503000,0,$GVGNSTIM,047503000,2010,03,03,13,11,43,0,0,0,0X00000003
047503000,0,$GVGNSPOS,047503000,46.3156600,6.9359567,0,0,0.00,0,0,0,0,0,0,0,0,0,0,0,0,0,3,0X00000001,0,0,0X000C0013
#$GPRMC,131144.000,A,4618.9396,N,00656.1574,E,0.00,,030410,,,A*78
047504000,0,$GVGNSTIM,047504000,2010,03,03,13,11,44,0,0,0,0X00000003
047504000,0,$GVGNSPOS,047504000,46.3156600,6.9359567,0,0,0.00,0,0,0,0,0,0,0,0,0,0,0,0,0,3,0X00000001,0,0,0X000C0013
#$GPRMC,131145.000,A,4618.9400,N,00656.1613,E,5.32,76.63,030410,,,A*5D
047505000,0,$GVGNSTIM,047505000,2010,03,03,13,11,45,0,0,0,0X00000003
047505000,0,$GVGNSPOS,047505000,46.3156667,6.9360217,0,0,2.74,0,76.63,0,0,0,0,0,0,0,0,0,0,0,3,0X00000001,0,0,0X000C0053
#$GPGGA,131146.000,4618.9404,N,00656.1638,E,1,09,0.9,384.0,M,48.1,M,,0000*55
#$GPGSV,3,1,11,07,63,151,40,13,56,053,29,10,44,302,32,04,42,214,28*7A
#$GPGSV,3,2,11,02,42,283,26,08,33,188,40,23,29,066,42,05,18,302,29*76
#$GPGSV,3,3,11,16,09,036,,20,07,123,31,29,02,334,*48
#$GPRMC,131146.000,A,4618.9404,N,00656.1638,E,6.58,74.03,030410,,,A*58
047506000,0,$GVGNSTIM,047506000,2010,03,03,13,11,46,0,0,0,0X00000003
047506000,0,$GVGNSPOS,047506000,46.3156733,6.9360633,384.0,0,3.39,0,74.03,0,0.9,0,09,0,0,0,0,0,0,0,3,0X00000001,0,0,0X000C0557
047506000,10,$GVGNSSAT,047506000,1,07,151,63,40,0X00,0,0X1F
047506000,09,$GVGNSSAT,047506000,1,13,053,56,29,0X00,0,0X1F
047506000,08,$GVGNSSAT,047506000,1,10,302,44,32,0X00,0,0X1F
047506000,07,$GVGNSSAT,047506000,1,04,214,42,28,0X00,0,0X1F
047506000,06,$GVGNSSAT,047506000,1,02,283,42,26,0X00,0,0X1F
047506000,05,$GVGNSSAT,047506000,1,08,188,33,40,0X00,0,0X1F
047506000,04,$GVGNSSAT,047506000,1,23,066,29,42,0X00,0,0X1F
047506000,03,$GVGNSSAT,047506000,1,05,302,18,29,0X00,0,0X1F
047506000,02,$GVGNSSAT,047506000,1,16,036,09,0,0X00,0,0X0F
047506000,01,$GVGNSSAT,047506000,1,20,123,07,31,0X00,0,0X1F
047506000,00,$GVGNSSAT,047506000,1,29,334,02,0,0X00,0,0X0F
#$GPRMC,131147.000,A,4618.9409,N,00656.1670,E,9.29,76.11,030410,,,A*50
047507000,0,$GVGNSTIM,047507000,2010,03,03,13,11,47,0,0,0,0X00000003
047507000,0,$GVGNSPOS,047507000,46.3156817,6.9361167,0,0,4.78,0,76.11,0,0,0,0,0,0,0,0,0,0,0,3,0X00000001,0,0,0X000C0053
#$GPRMC,131148.000,A,4618.9417,N,00656.1715,E,12.57,75.87,030410,,,A*6D
047508000,0,$GVGNSTIM,047508000,2010,03,03,13,11,48,0,0,0,0X00000003
047508000,0,$GVGNSPOS,047508000,46.3156950,6.9361917,0,0,6.47,0,75.87,0,0,0,0,0,0,0,0,0,0,0,3,0X00000001,0,0,0X000C0053
#$GPRMC,131149.000,A,4618.9426,N,00656.1771,E,14.90,76.79,030410,,,A*63
047509000,0,$GVGNSTIM,047509000,2010,03,03,13,11,49,0,0,0,0X00000003
047509000,0,$GVGNSPOS,047509000,46.3157100,6.9362850,0,0,7.67,0,76.79,0,0,0,0,0,0,0,0,0,0,0,3,0X00000001,0,0,0X000C0053
#$GPGGA,131150.000,4618.9436,N,00656.1831,E,1,09,0.9,383.2,M,48.1,M,,0000*51
#$GPGSV,3,1,11,07,63,151,40,13,56,053,29,10,44,302,31,04,42,214,23*72
#$GPGSV,3,2,11,02,42,283,26,08,33,188,40,23,29,066,42,05,18,302,27*78
#$GPGSV,3,3,11,16,09,036,,20,07,123,24,29,02,334,*4C
#$GPRMC,131150.000,A,4618.9436,N,00656.1831,E,15.13,75.71,030410,,,A*60
047510000,0,$GVGNSTIM,047510000,2010,03,03,13,11,50,0,0,0,0X00000003
047510000,0,$GVGNSPOS,047510000,46.3157267,6.9363850,383.2,0,7.78,0,75.71,0,0.9,0,09,0,0,0,0,0,0,0,3,0X00000001,0,0,0X000C0557
047510000,10,$GVGNSSAT,047510000,1,07,151,63,40,0X00,0,0X1F
047510000,09,$GVGNSSAT,047510000,1,13,053,56,29,0X00,0,0X1F
047510000,08,$GVGNSSAT,047510000,1,10,302,44,31,0X00,0,0X1F
047510000,07,$GVGNSSAT,047510000,1,04,214,42,23,0X00,0,0X1F
047510000,06,$GVGNSSAT,047510000,1,02,283,42,26,0X00,0,0X1F
047510000,05,$GVGNSSAT,047510000,1,08,188,33,40,0X00,0,0X1F
047510000,04,$GVGNSSAT,047510000,1,23,066,29,42,0X00,0,0X1F
047510000,03,$GVGNSSAT,047510000,1,05,302,18,27,0X00,0,0X1F
047510000,02,$GVGNSSAT,047510000,1,16,036,09,0,0X00,0,0X0F
047510000,01,$GVGNSSAT,047510000,1,20,123,07,24,0X00,0,0X1F
047510000,00,$GVGNSSAT,047510000,1,29,334,02,0,0X00,0,0X0F
#$GPRMC,131151.000,A,4618.9446,N,00656.1893,E,15.75,76.28,030410,,,A*61
047511000,0,$GVGNSTIM,047511000,2010,03,03,13,11,51,0,0,0,0X00000003
047511000,0,$GVGNSPOS,047511000,46.3157433,6.9364883,0,0,8.10,0,76.28,0,0,0,0,0,0,0,0,0,0,0,3,0X00000001,0,0,0X000C0053
#$GPRMC,131152.000,A,4618.9456,N,00656.1956,E,15.75,75.78,030410,,,A*6D
047512000,0,$GVGNSTIM,047512000,2010,03,03,13,11,52,0,0,0,0X00000003
047512000,0,$GVGNSPOS,047512000,46.3157600,6.9365933,0,0,8.10,0,75.78,0,0,0,0,0,0,0,0,0,0,0,3,0X00000001,0,0,0X000C0053
#$GPRMC,131153.000,A,4618.9466,N,00656.2016,E,14.39,77.70,030410,,,A*62
047513000,0,$GVGNSTIM,047513000,2010,03,03,13,11,53,0,0,0,0X00000003
047513000,0,$GVGNSPOS,047513000,46.3157767,6.9366933,0,0,7.40,0,77.70,0,0,0,0,0,0,0,0,0,0,0,3,0X00000001,0,0,0X000C0053
#$GPGGA,131154.000,4618.9469,N,00656.2084,E,1,09,0.9,382.4,M,48.1,M,,0000*5D
#$GPGSV,3,1,11,07,63,151,40,13,56,053,28,10,44,302,31,04,42,214,24*74
#$GPGSV,3,2,11,02,42,283,27,08,33,188,40,23,29,066,42,05,18,302,26*78
#$GPGSV,3,3,11,16,09,036,,20,07,123,25,29,02,334,*4D
#$GPRMC,131154.000,A,4618.9469,N,00656.2084,E,12.79,78.29,030410,,,A*60
047514000,0,$GVGNSTIM,047514000,2010,03,03,13,11,54,0,0,0,0X00000003
047514000,0,$GVGNSPOS,047514000,46.3157817,6.9368067,382.4,0,6.58,0,78.29,0,0.9,0,09,0,0,0,0,0,0,0,3,0X00000001,0,0,0X000C0557
047514000,10,$GVGNSSAT,047514000,1,07,151,63,40,0X00,0,0X1F
047514000,09,$GVGNSSAT,047514000,1,13,053,56,28,0X00,0,0X1F
047514000,08,$GVGNSSAT,047514000,1,10,302,44,31,0X00,0,0X1F
047514000,07,$GVGNSSAT,047514000,1,04,214,42,24,0X00,0,0X1F
047514000,06,$GVGNSSAT,047514000,1,02,283,42,27,0X00,0,0X1F
047514000,05,$GVGNSSAT,047514000,1,08,188,33,40,0X00,0,0X1F
047514000,04,$GVGNSSAT,047514000,1,23,066,29,42,0X00,0,0X1F
047514000,03,$GVGNSSAT,047514000,1,05,302,18,26,0X00,0,0X1F
047514000,02,$GVGNSSAT,047514000,1,16,036,09,0,0X00,0,0X0F
047514000,01,$GVGNSSAT,047514000,1,20,123,07,25,0X00,0,0X1F
047514000,00,$GVGNSSAT,047514000,1,29,334,02,0,0X00,0,0X0F
#$GPRMC,131155.000,A,4618.9479,N,00656.2127,E,12.01,78.50,030410,,,A*69
047515000,0,$GVGNSTIM,047515000,2010,03,03,13,11,55,0,0,0,0X00000003
047515000,0,$GVGNSPOS,047515000,46.3157983,6.9368783,0,0,6.18,0,78.50,0,0,0,0,0,0,0,0,0,0,0,3,0X00000001,0,0,0X000C0053
#$GPRMC,131156.000,A,4618.9489,N,00656.2168,E,11.45,76.30,030410,,,A*65
047516000,0,$GVGNSTIM,047516000,2010,03,03,13,11,56,0,0,0,0X00000003
047516000,0,$GVGNSPOS,047516000,46.3158150,6.9369467,0,0,5.89,0,76.30,0,0,0,0,0,0,0,0,0,0,0,3,0X00000001,0,0,0X000C0053
#$GPRMC,131157.000,A,4618.9503,N,00656.2207,E,10.97,73.40,030410,,,A*61
047517000,0,$GVGNSTIM,047517000,2010,03,03,13,11,57,0,0,0,0X00000003
047517000,0,$GVGNSPOS,047517000,46.3158383,6.9370117,0,0,5.64,0,73.40,0,0,0,0,0,0,0,0,0,0,0,3,0X00000001,0,0,0X000C0053
#$GPGGA,131158.000,4618.9509,N,00656.2256,E,1,09,0.9,382.8,M,48.1,M,,0000*57
#$GPGSV,3,1,11,07,63,151,38,13,56,053,29,10,44,302,33,04,42,214,27*7B
#$GPGSV,3,2,11,02,42,283,29,08,33,188,40,23,29,066,42,05,18,302,30*71
#$GPGSV,3,3,11,16,09,036,,20,07,123,24,29,02,334,*4C
#$GPRMC,131158.000,A,4618.9509,N,00656.2256,E,12.38,75.52,030410,,,A*62
047518000,0,$GVGNSTIM,047518000,2010,03,03,13,11,58,0,0,0,0X00000003
047518000,0,$GVGNSPOS,047518000,46.3158483,6.9370933,382.8,0,6.37,0,75.52,0,0.9,0,09,0,0,0,0,0,0,0,3,0X00000001,0,0,0X000C0557
047518000,10,$GVGNSSAT,047518000,1,07,151,63,38,0X00,0,0X1F
047518000,09,$GVGNSSAT,047518000,1,13,053,56,29,0X00,0,0X1F
047518000,08,$GVGNSSAT,047518000,1,10,302,44,33,0X00,0,0X1F
047518000,07,$GVGNSSAT,047518000,1,04,214,42,27,0X00,0,0X1F
047518000,06,$GVGNSSAT,047518000,1,02,283,42,29,0X00,0,0X1F
047518000,05,$GVGNSSAT,047518000,1,08,188,33,40,0X00,0,0X1F
047518000,04,$GVGNSSAT,047518000,1,23,066,29,42,0X00,0,0X1F
047518000,03,$GVGNSSAT,047518000,1,05,302,18,30,0X00,0,0X1F
047518000,02,$GVGNSSAT,047518000,1,16,036,09,0,0X00,0,0X0F
047518000,01,$GVGNSSAT,047518000,1,20,123,07,24,0X00,0,0X1F
047518000,00,$GVGNSSAT,047518000,1,29,334,02,0,0X00,0,0X0F
#$GPRMC,131159.000,A,4618.9516,N,00656.2309,E,12.92,75.45,030410,,,A*60
047519000,0,$GVGNSTIM,047519000,2010,03,03,13,11,59,0,0,0,0X00000003
047519000,0,$GVGNSPOS,047519000,46.3158600,6.9371817,0,0,6.65,0,75.45,0,0,0,0,0,0,0,0,0,0,0,3,0X00000001,0,0,0X000C0053
#$GPRMC,131200.000,A,4618.9524,N,00656.2361,E,12.56,74.79,030410,,,A*66
047520000,0,$GVGNSTIM,047520000,2010,03,03,13,12,00,0,0,0,0X00000003
047520000,0,$GVGNSPOS,047520000,46.3158733,6.9372683,0,0,6.46,0,74.79,0,0,0,0,0,0,0,0,0,0,0,3,0X00000001,0,0,0X000C0053
#$GPRMC,131201.000,A,4618.9529,N,00656.2415,E,11.74,72.14,030410,,,A*60
047521000,0,$GVGNSTIM,047521000,2010,03,03,13,12,01,0,0,0,0X00000003
047521000,0,$GVGNSPOS,047521000,46.3158817,6.9373583,0,0,6.04,0,72.14,0,0,0,0,0,0,0,0,0,0,0,3,0X00000001,0,0,0X000C0053
#$GPGGA,131202.000,4618.9536,N,00656.2466,E,1,09,0.9,384.3,M,48.1,M,,0000*5F
#$GPGSV,3,1,11,07,63,151,40,13,56,053,32,10,44,302,33,04,42,214,26*7F
#$GPGSV,3,2,11,02,42,283,28,08,33,188,40,23,29,066,43,05,18,302,41*77
#$GPGSV,3,3,11,16,09,036,,20,07,123,28,29,02,334,*40
#$GPRMC,131202.000,A,4618.9536,N,00656.2466,E,11.38,71.26,030410,,,A*63
047522000,0,$GVGNSTIM,047522000,2010,03,03,13,12,02,0,0,0,0X00000003
047522000,0,$GVGNSPOS,047522000,46.3158933,6.9374433,384.3,0,5.85,0,71.26,0,0.9,0,09,0,0,0,0,0,0,0,3,0X00000001,0,0,0X000C0557
047522000,10,$GVGNSSAT,047522000,1,07,151,63,40,0X00,0,0X1F
047522000,09,$GVGNSSAT,047522000,1,13,053,56,32,0X00,0,0X1F
047522000,08,$GVGNSSAT,047522000,1,10,302,44,33,0X00,0,0X1F
047522000,07,$GVGNSSAT,047522000,1,04,214,42,26,0X00,0,0X1F
047522000,06,$GVGNSSAT,047522000,1,02,283,42,28,0X00,0,0X1F
047522000,05,$GVGNSSAT,047522000,1,08,188,33,40,0X00,0,0X1F
047522000,04,$GVGNSSAT,047522000,1,23,066,29,43,0X00,0,0X1F
047522000,03,$GVGNSSAT,047522000,1,05,302,18,41,0X00,0,0X1F
047522000,02,$GVGNSSAT,047522000,1,16,036,09,0,0X00,0,0X0F
047522000,01,$GVGNSSAT,047522000,1,20,123,07,28,0X00,0,0X1F
047522000,00,$GVGNSSAT,047522000,1,29,334,02,0,0X00,0,0X0F
#$GPRMC,131203.000,A,4618.9543,N,00656.2515,E,11.71,71.21,030410,,,A*6F
047523000,0,$GVGNSTIM,047523000,2010,03,03,13,12,03,0,0,0,0X00000003
047523000,0,$GVGNSPOS,047523000,46.3159050,6.9375250,0,0,6.02,0,71.21,0,0,0,0,0,0,0,0,0,0,0,3,0X00000001,0,0,0X000C0053
#$GPRMC,131204.000,A,4618.9553,N,00656.2563,E,12.47,72.73,030410,,,A*6A
047524000,0,$GVGNSTIM,047524000,2010,03,03,13,12,04,0,0,0,0X00000003
047524000,0,$GVGNSPOS,047524000,46.3159217,6.9376050,0,0,6.42,0,72.73,0,0,0,0,0,0,0,0,0,0,0,3,0X00000001,0,0,0X000C0053
#$GPRMC,131205.000,A,4618.9563,N,00656.2611,E,12.39,73.86,030410,,,A*6C
047525000,0,$GVGNSTIM,047525000,2010,03,03,13,12,05,0,0,0,0X00000003
047525000,0,$GVGNSPOS,047525000,46.3159383,6.9376850,0,0,6.37,0,73.86,0,0,0,0,0,0,0,0,0,0,0,3,0X00000001,0,0,0X000C0053
#$GPGGA,131206.000,4618.9571,N,00656.2655,E,1,09,0.9,385.0,M,48.1,M,,0000*58
#$GPGSV,3,1,11,07,63,151,40,13,56,053,28,10,44,302,33,04,42,214,26*74
#$GPGSV,3,2,11,02,42,283,21,08,33,188,40,23,29,066,43,05,18,302,33*7B
#$GPGSV,3,3,11,16,09,036,,20,07,123,33,29,02,334,*4A
#$GPRMC,131206.000,A,4618.9571,N,00656.2655,E,10.27,76.55,030410,,,A*6A
047526000,0,$GVGNSTIM,047526000,2010,03,03,13,12,06,0,0,0,0X00000003
047526000,0,$GVGNSPOS,047526000,46.3159517,6.9377583,385.0,0,5.28,0,76.55,0,0.9,0,09,0,0,0,0,0,0,0,3,0X00000001,0,0,0X000C0557
047526000,10,$GVGNSSAT,047526000,1,07,151,63,40,0X00,0,0X1F
047526000,09,$GVGNSSAT,047526000,1,13,053,56,28,0X00,0,0X1F
047526000,08,$GVGNSSAT,047526000,1,10,302,44,33,0X00,0,0X1F
047526000,07,$GVGNSSAT,047526000,1,04,214,42,26,0X00,0,0X1F
047526000,06,$GVGNSSAT,047526000,1,02,283,42,21,0X00,0,0X1F
047526000,05,$GVGNSSAT,047526000,1,08,188,33,40,0X00,0,0X1F
047526000,04,$GVGNSSAT,047526000,1,23,066,29,43,0X00,0,0X1F
047526000,03,$GVGNSSAT,047526000,1,05,302,18,33,0X00,0,0X1F
047526000,02,$GVGNSSAT,047526000,1,16,036,09,0,0X00,0,0X0F
047526000,01,$GVGNSSAT,047526000,1,20,123,07,33,0X00,0,0X1F
047526000,00,$GVGNSSAT,047526000,1,29,334,02,0,0X00,0,0X0F
#$GPRMC,131207.000,A,4618.9576,N,00656.2691,E,8.13,76.00,030410,,,A*5A
047527000,0,$GVGNSTIM,047527000,2010,03,03,13,12,07,0,0,0,0X00000003
047527000,0,$GVGNSPOS,047527000,46.3159600,6.9378183,0,0,4.18,0,76.00,0,0,0,0,0,0,0,0,0,0,0,3,0X00000001,0,0,0X000C0053
#$GPRMC,131208.000,A,4618.9580,N,00656.2719,E,6.12,73.85,030410,,,A*5A
047528000,0,$GVGNSTIM,047528000,2010,03,03,13,12,08,0,0,0,0X00000003
047528000,0,$GVGNSPOS,047528000,46.3159667,6.9378650,0,0,3.15,0,73.85,0,0,0,0,0,0,0,0,0,0,0,3,0X00000001,0,0,0X000C0053
#$GPRMC,131209.000,A,4618.9583,N,00656.2741,E,5.43,79.93,030410,,,A*5F
047529000,0,$GVGNSTIM,047529000,2010,03,03,13,12,09,0,0,0,0X00000003
047529000,0,$GVGNSPOS,047529000,46.3159717,6.9379017,0,0,2.79,0,79.93,0,0,0,0,0,0,0,0,0,0,0,3,0X00000001,0,0,0X000C0053
#$GPGGA,131210.000,4618.9586,N,00656.2761,E,1,09,0.9,384.6,M,48.1,M,,0000*56
#$GPGSV,3,1,11,07,63,151,40,13,56,053,29,10,44,302,33,04,42,214,23*70
#$GPGSV,3,2,11,02,42,283,30,08,33,188,40,23,29,066,43,05,18,302,34*7C
#$GPGSV,3,3,11,16,09,036,,20,07,123,31,29,02,334,23*49
#$GPRMC,131210.000,A,4618.9586,N,00656.2761,E,4.78,76.26,030410,,,A*58
047530000,0,$GVGNSTIM,047530000,2010,03,03,13,12,10,0,0,0,0X00000003
047530000,0,$GVGNSPOS,047530000,46.3159767,6.9379350,384.6,0,2.46,0,76.26,0,0.9,0,09,0,0,0,0,0,0,0,3,0X00000001,0,0,0X000C0557
047530000,10,$GVGNSSAT,047530000,1,07,151,63,40,0X00,0,0X1F
047530000,09,$GVGNSSAT,047530000,1,13,053,56,29,0X00,0,0X1F
047530000,08,$GVGNSSAT,047530000,1,10,302,44,33,0X00,0,0X1F
047530000,07,$GVGNSSAT,047530000,1,04,214,42,23,0X00,0,0X1F
047530000,06,$GVGNSSAT,047530000,1,02,283,42,30,0X00,0,0X1F
047530000,05,$GVGNSSAT,047530000,1,08,188,33,40,0X00,0,0X1F
047530000,04,$GVGNSSAT,047530000,1,23,066,29,43,0X00,0,0X1F
047530000,03,$GVGNSSAT,047530000,1,05,302,18,34,0X00,0,0X1F
047530000,02,$GVGNSSAT,047530000,1,16,036,09,0,0X00,0,0X0F
047530000,01,$GVGNSSAT,047530000,1,20,123,07,31,0X00,0,0X1F
047530000,00,$GVGNSSAT,047530000,1,29,334,02,23,0X00,0,0X1F
#$GPRMC,131211.000,A,4618.9590,N,00656.2776,E,4.61,73.08,030410,,,A*59
047531000,0,$GVGNSTIM,047531000,2010,03,03,13,12,11,0,0,0,0X00000003
047531000,0,$GVGNSPOS,047531000,46.3159833,6.9379600,0,0,2.37,0,73.08,0,0,0,0,0,0,0,0,0,0,0,3,0X00000001,0,0,0X000C0053
#$GPRMC,131212.000,A,4618.9594,N,00656.2800,E,7.23,76.85,030410,,,A*55
047532000,0,$GVGNSTIM,047532000,2010,03,03,13,12,12,0,0,0,0X00000003
047532000,0,$GVGNSPOS,047532000,46.3159900,6.9380000,0,0,3.72,0,76.85,0,0,0,0,0,0,0,0,0,0,0,3,0X00000001,0,0,0X000C0053
#$GPRMC,131213.000,A,4618.9597,N,00656.2832,E,8.16,77.61,030410,,,A*54
047533000,0,$GVGNSTIM,047533000,2010,03,03,13,12,13,0,0,0,0X00000003
047533000,0,$GVGNSPOS,047533000,46.3159950,6.9380533,0,0,4.20,0,77.61,0,0,0,0,0,0,0,0,0,0,0,3,0X00000001,0,0,0X000C0053
#$GPGGA,131214.000,4618.9601,N,00656.2867,E,1,09,0.9,384.5,M,48.1,M,,0000*54
#$GPGSV,3,1,11,07,63,151,40,13,56,053,29,10,44,302,33,04,42,214,29*7A
#$GPGSV,3,2,11,02,42,283,32,08,33,188,40,23,29,066,43,05,18,302,30*7A
#$GPGSV,3,3,11,16,09,036,,20,07,123,24,29,02,334,*4C
#$GPRMC,131214.000,A,4618.9601,N,00656.2867,E,9.27,77.35,030410,,,A*5D
047534000,0,$GVGNSTIM,047534000,2010,03,03,13,12,14,0,0,0,0X00000003
047534000,0,$GVGNSPOS,047534000,46.3160017,6.9381117,384.5,0,4.77,0,77.35,0,0.9,0,09,0,0,0,0,0,0,0,3,0X00000001,0,0,0X000C0557
047534000,10,$GVGNSSAT,047534000,1,07,151,63,40,0X00,0,0X1F
047534000,09,$GVGNSSAT,047534000,1,13,053,56,29,0X00,0,0X1F
047534000,08,$GVGNSSAT,047534000,1,10,302,44,33,0X00,0,0X1F
047534000,07,$GVGNSSAT,047534000,1,04,214,42,29,0X00,0,0X1F
047534000,06,$GVGNSSAT,047534000,1,02,283,42,32,0X00,0,0X1F
047534000,05,$GVGNSSAT,047534000,1,08,188,33,40,0X00,0,0X1F
047534000,04,$GVGNSSAT,047534000,1,23,066,29,43,0X00,0,0X1F
047534000,03,$GVGNSSAT,047534000,1,05,302,18,30,0X00,0,0X1F
047534000,02,$GVGNSSAT,047534000,1,16,036,09,0,0X00,0,0X0F
047534000,01,$GVGNSSAT,047534000,1,20,123,07,24,0X00,0,0X1F
047534000,00,$GVGNSSAT,047534000,1,29,334,02,0,0X00,0,0X0F
#$GPRMC,131215.000,A,4618.9608,N,00656.2906,E,10.42,74.53,030410,,,A*6B
047535000,0,$GVGNSTIM,047535000,2010,03,03,13,12,15,0,0,0,0X00000003
047535000,0,$GVGNSPOS,047535000,46.3160133,6.9381767,0,0,5.36,0,74.53,0,0,0,0,0,0,0,0,0,0,0,3,0X00000001,0,0,0X000C0053
#$GPRMC,131216.000,A,4618.9617,N,00656.2949,E,11.47,73.22,030410,,,A*68
047536000,0,$GVGNSTIM,047536000,2010,03,03,13,12,16,0,0,0,0X00000003
047536000,0,$GVGNSPOS,047536000,46.3160283,6.9382483,0,0,5.90,0,73.22,0,0,0,0,0,0,0,0,0,0,0,3,0X00000001,0,0,0X000C0053
#$GPRMC,131217.000,A,4618.9626,N,00656.2994,E,11.46,73.64,030410,,,A*68
047537000,0,$GVGNSTIM,047537000,2010,03,03,13,12,17,0,0,0,0X00000003
047537000,0,$GVGNSPOS,047537000,46.3160433,6.9383233,0,0,5.90,0,73.64,0,0,0,0,0,0,0,0,0,0,0,3,0X00000001,0,0,0X000C0053
#$GPGGA,131218.000,4618.9634,N,00656.3038,E,1,09,0.9,385.5,M,48.1,M,,0000*5C
#$GPGSV,3,1,11,07,63,151,41,13,56,053,35,10,44,302,33,04,42,214,27*78
#$GPGSV,3,2,11,02,42,283,25,08,33,188,40,23,29,067,43,05,19,302,29*74
#$GPGSV,3,3,11,16,09,036,,20,07,123,32,29,02,334,*4B
#$GPRMC,131218.000,A,4618.9634,N,00656.3038,E,11.08,76.51,030410,,,A*63
047538000,0,$GVGNSTIM,047538000,2010,03,03,13,12,18,0,0,0,0X00000003
047538000,0,$GVGNSPOS,047538000,46.3160567,6.9383967,385.5,0,5.70,0,76.51,0,0.9,0,09,0,0,0,0,0,0,0,3,0X00000001,0,0,0X000C0557
047538000,10,$GVGNSSAT,047538000,1,07,151,63,41,0X00,0,0X1F
047538000,09,$GVGNSSAT,047538000,1,13,053,56,35,0X00,0,0X1F
047538000,08,$GVGNSSAT,047538000,1,10,302,44,33,0X00,0,0X1F
047538000,07,$GVGNSSAT,047538000,1,04,214,42,27,0X00,0,0X1F
047538000,06,$GVGNSSAT,047538000,1,02,283,42,25,0X00,0,0X1F
047538000,05,$GVGNSSAT,047538000,1,08,188,33,40,0X00,0,0X1F
047538000,04,$GVGNSSAT,047538000,1,23,067,29,43,0X00,0,0X1F
047538000,03,$GVGNSSAT,047538000,1,05,302,19,29,0X00,0,0X1F
047538000,02,$GVGNSSAT,047538000,1,16,036,09,0,0X00,0,0X0F
047538000,01,$GVGNSSAT,047538000,1,20,123,07,32,0X00,0,0X1F
047538000,00,$GVGNSSAT,047538000,1,29,334,02,0,0X00,0,0X0F
#$GPRMC,131219.000,A,4618.9641,N,00656.3080,E,9.97,76.81,030410,,,A*51
047539000,0,$GVGNSTIM,047539000,2010,03,03,13,12,19,0,0,0,0X00000003
047539000,0,$GVGNSPOS,047539000,46.3160683,6.9384667,0,0,5.13,0,76.81,0,0,0,0,0,0,0,0,0,0,0,3,0X00000001,0,0,0X000C0053
#$GPRMC,131220.000,A,4618.9646,N,00656.3118,E,9.69,76.86,030410,,,A*5A
047540000,0,$GVGNSTIM,047540000,2010,03,03,13,12,20,0,0,0,0X00000003
047540000,0,$GVGNSPOS,047540000,46.3160767,6.9385300,0,0,4.98,0,76.86,0,0,0,0,0,0,0,0,0,0,0,3,0X00000001,0,0,0X000C0053
#$GPRMC,131221.000,A,4618.9652,N,00656.3155,E,9.30,76.20,030410,,,A*57
047541000,0,$GVGNSTIM,047541000,2010,03,03,13,12,21,0,0,0,0X00000003
047541000,0,$GVGNSPOS,047541000,46.3160867,6.9385917,0,0,4.78,0,76.20,0,0,0,0,0,0,0,0,0,0,0,3,0X00000001,0,0,0X000C0053
#$GPGGA,131222.000,4618.9658,N,00656.3191,E,1,08,1.1,385.7,M,48.1,M,,0000*57
#$GPGSV,3,1,11,07,63,151,41,13,56,053,30,10,44,302,34,04,42,214,28*75
#$GPGSV,3,2,11,02,42,283,25,08,33,188,40,23,29,067,43,05,19,302,*7F
#$GPGSV,3,3,11,16,09,036,,20,07,123,31,29,02,334,*48
#$GPRMC,131222.000,A,4618.9658,N,00656.3191,E,9.00,76.86,030410,,,A*59
047542000,0,$GVGNSTIM,047542000,2010,03,03,13,12,22,0,0,0,0X00000003
047542000,0,$GVGNSPOS,047542000,46.3160967,6.9386517,385.7,0,4.63,0,76.86,0,1.1,0,08,0,0,0,0,0,0,0,3,0X00000001,0,0,0X000C0557
047542000,10,$GVGNSSAT,047542000,1,07,151,63,41,0X00,0,0X1F
047542000,09,$GVGNSSAT,047542000,1,13,053,56,30,0X00,0,0X1F
047542000,08,$GVGNSSAT,047542000,1,10,302,44,34,0X00,0,0X1F
047542000,07,$GVGNSSAT,047542000,1,04,214,42,28,0X00,0,0X1F
047542000,06,$GVGNSSAT,047542000,1,02,283,42,25,0X00,0,0X1F
047542000,05,$GVGNSSAT,047542000,1,08,188,33,40,0X00,0,0X1F
047542000,04,$GVGNSSAT,047542000,1,23,067,29,43,0X00,0,0X1F
047542000,03,$GVGNSSAT,047542000,1,05,302,19,0,0X00,0,0X0F
047542000,02,$GVGNSSAT,047542000,1,16,036,09,0,0X00,0,0X0F
047542000,01,$GVGNSSAT,047542000,1,20,123,07,31,0X00,0,0X1F
047542000,00,$GVGNSSAT,047542000,1,29,334,02,0,0X00,0,0X0F
#$GPRMC,131223.000,A,4618.9663,N,00656.3225,E,8.76,77.25,030410,,,A*54
047543000,0,$GVGNSTIM,047543000,2010,03,03,13,12,23,0,0,0,0X00000003
047543000,0,$GVGNSPOS,047543000,46.3161050,6.9387083,0,0,4.51,0,77.25,0,0,0,0,0,0,0,0,0,0,0,3,0X00000001,0,0,0X000C0053
#$GPRMC,131224.000,A,4618.9668,N,00656.3259,E,8.71,76.66,030410,,,A*52
047544000,0,$GVGNSTIM,047544000,2010,03,03,13,12,24,0,0,0,0X00000003
047544000,0,$GVGNSPOS,047544000,46.3161133,6.9387650,0,0,4.48,0,76.66,0,0,0,0,0,0,0,0,0,0,0,3,0X00000001,0,0,0X000C0053
#$GPRMC,131225.000,A,4618.9674,N,00656.3295,E,9.46,75.30,030410,,,A*5B
047545000,0,$GVGNSTIM,047545000,2010,03,03,13,12,25,0,0,0,0X00000003
047545000,0,$GVGNSPOS,047545000,46.3161233,6.9388250,0,0,4.87,0,75.30,0,0,0,0,0,0,0,0,0,0,0,3,0X00000001,0,0,0X000C0053
#$GPGGA,131226.000,4618.9681,N,00656.3333,E,1,09,0.9,385.5,M,48.1,M,,0000*57
#$GPGSV,3,1,11,07,63,151,41,13,56,053,34,10,44,302,34,04,42,214,28*71
#$GPGSV,3,2,11,02,42,283,26,08,33,188,40,23,29,067,43,05,19,302,29*77
#$GPGSV,3,3,11,16,09,036,,20,07,123,23,29,02,334,*4B
#$GPRMC,131226.000,A,4618.9681,N,00656.3333,E,10.26,75.84,030410,,,A*6E
047546000,0,$GVGNSTIM,047546000,2010,03,03,13,12,26,0,0,0,0X00000003
047546000,0,$GVGNSPOS,047546000,46.3161350,6.9388883,385.5,0,5.28,0,75.84,0,0.9,0,09,0,0,0,0,0,0,0,3,0X00000001,0,0,0X000C0557
047546000,10,$GVGNSSAT,047546000,1,07,151,63,41,0X00,0,0X1F
047546000,09,$GVGNSSAT,047546000,1,13,053,56,34,0X00,0,0X1F
047546000,08,$GVGNSSAT,047546000,1,10,302,44,34,0X00,0,0X1F
047546000,07,$GVGNSSAT,047546000,1,04,214,42,28,0X00,0,0X1F
047546000,06,$GVGNSSAT,047546000,1,02,283,42,26,0X00,0,0X1F
047546000,05,$GVGNSSAT,047546000,1,08,188,33,40,0X00,0,0X1F
047546000,04,$GVGNSSAT,047546000,1,23,067,29,43,0X00,0,0X1F
047546000,03,$GVGNSSAT,047546000,1,05,302,19,29,0X00,0,0X1F
047546000,02,$GVGNSSAT,047546000,1,16,036,09,0,0X00,0,0X0F
047546000,01,$GVGNSSAT,047546000,1,20,123,07,23,0X00,0,0X1F
047546000,00,$GVGNSSAT,047546000,1,29,334,02,0,0X00,0,0X0F
#$GPRMC,131227.000,A,4618.9688,N,00656.3370,E,9.72,74.10,030410,,,A*54
047547000,0,$GVGNSTIM,047547000,2010,03,03,13,12,27,0,0,0,0X00000003
047547000,0,$GVGNSPOS,047547000,46.3161467,6.9389500,0,0,5.00,0,74.10,0,0,0,0,0,0,0,0,0,0,0,3,0X00000001,0,0,0X000C0053
#$GPRMC,131228.000,A,4618.9696,N,00656.3407,E,9.26,70.24,030410,,,A*51
047548000,0,$GVGNSTIM,047548000,2010,03,03,13,12,28,0,0,0,0X00000003
047548000,0,$GVGNSPOS,047548000,46.3161600,6.9390117,0,0,4.76,0,70.24,0,0,0,0,0,0,0,0,0,0,0,3,0X00000001,0,0,0X000C0053
#$GPRMC,131229.000,A,4618.9705,N,00656.3439,E,8.13,64.43,030410,,,A*55
047549000,0,$GVGNSTIM,047549000,2010,03,03,13,12,29,0,0,0,0X00000003
047549000,0,$GVGNSPOS,047549000,46.3161750,6.9390650,0,0,4.18,0,64.43,0,0,0,0,0,0,0,0,0,0,0,3,0X00000001,0,0,0X000C0053
#$GPGGA,131230.000,4618.9715,N,00656.3467,E,1,09,0.9,385.1,M,48.1,M,,0000*5E
#$GPGSV,3,1,11,07,63,151,41,13,56,053,35,10,44,302,29,04,42,214,34*71
#$GPGSV,3,2,11,02,42,283,33,08,33,188,36,23,29,067,43,05,19,302,31*7B
#$GPGSV,3,3,11,16,09,036,,20,07,123,20,29,02,334,*48
#$GPRMC,131230.000,A,4618.9715,N,00656.3467,E,7.44,63.54,030410,,,A*5B
047550000,0,$GVGNSTIM,047550000,2010,03,03,13,12,30,0,0,0,0X00000003
047550000,0,$GVGNSPOS,047550000,46.3161917,6.9391117,385.1,0,3.83,0,63.54,0,0.9,0,09,0,0,0,0,0,0,0,3,0X00000001,0,0,0X000C0557
047550000,10,$GVGNSSAT,047550000,1,07,151,63,41,0X00,0,0X1F
047550000,09,$GVGNSSAT,047550000,1,13,053,56,35,0X00,0,0X1F
047550000,08,$GVGNSSAT,047550000,1,10,302,44,29,0X00,0,0X1F
047550000,07,$GVGNSSAT,047550000,1,04,214,42,34,0X00,0,0X1F
047550000,06,$GVGNSSAT,047550000,1,02,283,42,33,0X00,0,0X1F
047550000,05,$GVGNSSAT,047550000,1,08,188,33,36,0X00,0,0X1F
047550000,04,$GVGNSSAT,047550000,1,23,067,29,43,0X00,0,0X1F
047550000,03,$GVGNSSAT,047550000,1,05,302,19,31,0X00,0,0X1F
047550000,02,$GVGNSSAT,047550000,1,16,036,09,0,0X00,0,0X0F
047550000,01,$GVGNSSAT,047550000,1,20,123,07,20,0X00,0,0X1F
047550000,00,$GVGNSSAT,047550000,1,29,334,02,0,0X00,0,0X0F
#$GPRMC,131231.000,A,4618.9724,N,00656.3493,E,7.65,66.33,030410,,,A*54
047551000,0,$GVGNSTIM,047551000,2010,03,03,13,12,31,0,0,0,0X00000003
